     3.04           OBSERVATION DATA    M                   RINEX VERSION / TYPE
sbf2rin-13.4.5                          20200519 162431 UTC PGM / RUN BY / DATE 
SABA                                                        MARKER NAME         
Unknown                                                     MARKER NUMBER       
Xiao                Albora Technologies S.L.                OBSERVER / AGENCY   
3025671             SEPT POLARX5E       5.3.2               REC # / TYPE / VERS 
13725               SEPPOLANT_X_MF  NONE                    ANT # / TYPE        
  4777973.1770   176346.3070  4207663.6200                  APPROX POSITION XYZ 
        0.0000        0.0000        0.0000                  ANTENNA: DELTA H/E/N
G   18 C1C L1C D1C S1C C1W S1W C2W L2W D2W S2W C2L L2L D2L  SYS / # / OBS TYPES 
       S2L C5Q L5Q D5Q S5Q                                  SYS / # / OBS TYPES 
E   20 C1C L1C D1C S1C C6C L6C D6C S6C C5Q L5Q D5Q S5Q C7Q  SYS / # / OBS TYPES 
       L7Q D7Q S7Q C8Q L8Q D8Q S8Q                          SYS / # / OBS TYPES 
S    8 C1C L1C D1C S1C C5I L5I D5I S5I                      SYS / # / OBS TYPES 
R    8 C1C L1C D1C S1C C2C L2C D2C S2C                      SYS / # / OBS TYPES 
C   20 C1P L1P D1P S1P C5P L5P D5P S5P C2I L2I D2I S2I C7I  SYS / # / OBS TYPES 
       L7I D7I S7I C6I L6I D6I S6I                          SYS / # / OBS TYPES 
SEPTENTRIO RECEIVERS OUTPUT ALIGNED CARRIER PHASES.         COMMENT             
NO FURTHER PHASE SHIFT APPLIED IN THE RINEX ENCODER.        COMMENT             
G L1C                                                       SYS / PHASE SHIFT   
G L2W                                                       SYS / PHASE SHIFT   
G L2L  0.00000                                              SYS / PHASE SHIFT   
G L5Q  0.00000                                              SYS / PHASE SHIFT   
E L1C  0.00000                                              SYS / PHASE SHIFT   
E L6C  0.00000                                              SYS / PHASE SHIFT   
E L5Q  0.00000                                              SYS / PHASE SHIFT   
E L7Q  0.00000                                              SYS / PHASE SHIFT   
E L8Q  0.00000                                              SYS / PHASE SHIFT   
S L1C                                                       SYS / PHASE SHIFT   
S L5I                                                       SYS / PHASE SHIFT   
R L1C                                                       SYS / PHASE SHIFT   
R L2C                                                       SYS / PHASE SHIFT   
C L1P  0.00000                                              SYS / PHASE SHIFT   
C L5P  0.00000                                              SYS / PHASE SHIFT   
C L2I                                                       SYS / PHASE SHIFT   
C L7I                                                       SYS / PHASE SHIFT   
C L6I                                                       SYS / PHASE SHIFT   
     1.000                                                  INTERVAL            
  2020     5    19    16     5    0.0000000     GPS         TIME OF FIRST OBS   
  2020     5    19    16     6   55.0000000     GPS         TIME OF LAST OBS    
    48                                                      # OF SATELLITES     
 C1C    0.000 C2C    0.000                                  GLONASS COD/PHS/BIS 
DBHZ                                                        SIGNAL STRENGTH UNIT
 10 R01  1 R06 -4 R07  5 R08  6 R12 -1 R13 -2 R14 -7 R22 -3 GLONASS SLOT / FRQ #
    R23  3 R24  2                                           GLONASS SLOT / FRQ #
                                                            END OF HEADER       
> 2020 05 19 16 05  0.0000000  0 48
C05                                                                                                                                  39881022.382 6 207670947.56406                        36.000    39881023.453 6 160584353.01606                        41.000    39881027.209 6 168749673.99906                        37.000
C06                                                                                                                                  40658779.869 5 211720956.82705                        34.000    40658780.681 6 163716064.80806                        39.000    40658782.647 6 172040617.60106                        37.000
C09                                                                                                                                  40401331.081 6 210380329.14006                        36.000    40401333.424 6 162679433.24506                        40.000    40401333.121 5 170951269.71605                        35.000
C11                                                                                                                                  25420084.671 6 132369044.18006                        37.000    25420085.848 7 102356138.92207                        43.000    25420087.488 6 107560703.07506                        41.000
C14                                                                                                                                  22757945.198 7 118506594.20507                        46.000    22757945.012 8  91636815.64608                        48.000    22757946.458 7  96296321.41607                        46.000
C16                                                                                                                                  40550501.248 6 211157117.76806                        37.000    40550507.706 6 163280094.97206                        41.000    40550506.784 5 171582472.51405                        35.000
C23  26688603.121 6 140249530.95906                        36.000    26688605.133 6 104731792.63306                        41.000    26688599.744 6 138974532.63006                        37.000                                                                    26688602.908 6 112928158.96106                        38.000
C27  24381533.874 6 128125833.78906                        41.000    24381535.505 7  95678395.17607                        44.000    24381531.831 7 126961045.15107                        43.000                                                                    24381537.618 7 103166269.61107                        42.000
C28  21785145.832 8 114481714.23608                        49.000    21785146.727 8  85489593.55708                        50.000    21785144.076 8 113440967.96608                        51.000                                                                    21785149.550 8  92180097.51308                        50.000
C33  23133619.469 7 121567994.96307                        46.000    23133646.246 7  90781404.80707                        47.000    23133616.596 8 120462822.03808                        48.000                                                                    23133635.329 7  97885983.10807                        46.000
C37  24902409.096 6 130863035.58306                        40.000    24902415.440 7  97722421.32807                        44.000    24902406.174 7 129673368.18207                        42.000                                                                    24902416.583 7 105370266.47207                        43.000
E01  25057356.727 7 131677300.39807                        44.000    25057360.057 7 106880934.47107                        43.000    25057358.392 7  98330456.24607                        46.000    25057357.227 7 100895593.88007                        46.000    25057357.717 8  99613027.13308                        49.000
E03  27597048.380 6 145023458.26606                        37.000    27597051.745 6 117713863.65306                        38.000    27597052.076 7 108296762.13107                        42.000    27597050.785 7 111121887.26507                        42.000    27597051.138 7 109709326.27007                        45.000
E07  27307829.569 6 143503643.31506                        37.000    27307833.909 6 116480265.60906                        39.000    27307835.818 7 107161855.17307                        42.000    27307833.945 7 109957353.03207                        42.000    27307835.023 7 108559596.68207                        45.000
E08  24191288.376 6 127126088.70206                        40.000    24191293.757 6 103186778.34606                        40.000    24191290.864 7  94931823.29507                        44.000    24191289.484 7  97408304.85507                        45.000    24191289.840 8  96170065.14508                        48.000
E13  23829526.945 7 125225001.89907                        46.000    23829530.229 7 101643684.68607                        47.000    23829528.348 8  93512186.64908                        49.000    23829527.447 8  95951630.33408                        51.000    23829527.875 8  94731910.56208                        53.000
E15  27435043.346 6 144172116.08306                        36.000    27435047.516 6 117022832.58906                        37.000    27435048.644 6 107661007.92406                        41.000    27435047.698 7 110469551.65707                        43.000    27435047.877 7 109065289.85907                        45.000
E21  25376231.941 6 133352993.72006                        41.000    25376235.529 6 108241076.11206                        41.000    25376235.028 7  99581787.02907                        46.000    25376234.095 7 102179566.30707                        47.000    25376234.138 8 100880677.74008                        49.000
E26  23122020.311 7 121507039.57307                        47.000    23122022.946 7  98625854.32707                        46.000    23122022.959 8  90735785.92608                        49.000    23122022.103 8  93102801.69908                        50.000    23122022.394 8  91919294.88408                        52.000
E27  28509366.235 5 149817720.32105                        31.000    28509374.952 5 121605288.16105                        31.000    28509375.422 6 111876891.80006                        36.000    28509373.716 6 114795389.22906                        36.000    28509374.228 6 113336153.58506                        39.000
E31  27893168.297 6 146579585.95706                        36.000    27893169.990 6 118976951.47706                        37.000    27893171.494 6 109458805.17506                        40.000    27893171.044 7 112314245.35307                        43.000    27893171.045 7 110886529.33207                        44.000
E33  28019545.930 6 147243716.19906                        36.000    28019550.793 6 119516030.47506                        37.000    28019549.117 6 109954738.58606                        41.000    28019547.979 7 112823115.09407                        42.000    28019548.239 7 111388931.41407                        44.000
G01  23952556.108 6 125871540.93706                        40.000    23952555.854 4        24.000    23952560.369 4  98081740.54004                        24.000    23952560.469 6  98081746.55806                        39.000    23952557.591 7  93994992.72007                        44.000
G07  24852061.020 6 130598449.25406                        38.000    24852060.533 3        19.000    24852062.039 3 101765030.70703                        19.000    24852060.895 5 101765032.70205                        34.000
G08  20895911.612 8 109808738.83108                        49.000    20895911.013 8        52.000    20895913.658 8  85565260.70208                        52.000    20895914.708 7  85565276.70007                        47.000    20895910.760 8  82000042.28008                        51.000
G10  21133802.747 8 111058878.12308                        51.000    21133802.206 8        52.000    21133804.821 8  86539394.58508                        52.000    21133805.055 7  86539397.58607                        46.000    21133801.430 8  82933581.87708                        51.000
G11  22194636.433 7 116633601.07707                        43.000    22194635.754 4        27.000    22194635.687 4  90883324.00304                        27.000
G16  21925621.647 7 115219908.03607                        44.000    21925620.767 4        29.000    21925620.671 4  89781741.86904                        29.000
G20  22470672.099 6 118084176.26806                        41.000    22470670.843 4        25.000    22470671.438 4  92013646.66504                        25.000
G21  24929507.143 6 131005436.50206                        37.000    24929505.985 2        15.000    24929506.374 2 102082154.52302                        15.000
G22  24883403.731 6 130763189.60806                        38.000    24883402.739 2        17.000    24883405.447 2 101893416.76802                        17.000
G26  24241746.033 6 127391209.07606                        38.000    24241745.452 5        31.000    24241751.217 5  99265905.07705                        31.000    24241751.861 6  99265882.07506                        36.000    24241750.654 7  95129807.45407                        45.000
G27  20304551.394 8 106701130.85308                        50.000    20304550.786 9        54.000    20304552.777 9  83143748.59409                        54.000    20304553.157 8  83143750.59308                        48.000    20304550.935 8  79679417.17508                        53.000
G30  25466483.534 5 133827272.62205                        35.000    25466483.181 1        11.000    25466485.908 1 104280988.23701                        11.000    25466486.975 5 104280996.23505                        30.000    25466485.071 5  99935955.13305                        35.000
G32  24846096.678 6 130567131.42006                        37.000    24846096.388 5        30.000    24846101.365 5 101740644.15805                        30.000    24846102.395 6 101740648.17706                        37.000    24846100.195 7  97501473.72007                        42.000
R01  24059761.698 6 128613218.92106                        36.000    24059772.604 5 100032552.15205                        33.000
R06  23271730.143 6 124182381.95906                        40.000
R07  20864674.391 7 111690189.00307                        47.000    20864678.910 7  86870212.61107                        45.000
R08  21445294.478 7 114838593.31307                        46.000    21445299.363 7  89318940.12707                        43.000
R12  23200434.202 7 123932525.39507                        43.000    23200442.352 6  96392010.06806                        40.000
R13  21115378.769 5 112754912.34205                        35.000    21115381.466 6  87698297.85206                        37.000
R14  22186931.498 7 118268832.72607                        46.000    22186936.662 7  91986890.55907                        44.000
R22  20835799.987 8 111222894.60908                        48.000    20835804.356 7  86506723.47007                        45.000
R23  20247795.932 8 108312025.50408                        51.000    20247801.597 6  84242740.66806                        40.000
R24  22833364.456 7 122100257.24707                        43.000    22833368.654 6  94966895.65906                        39.000
S23  38217589.105 6 200834788.29806                        41.000    38217563.301 7 149973925.66807                        43.000
S25  37560863.877 7 197383682.65407                        44.000
S36  37534840.250 7 197246924.78207                        44.000    37534814.665 7 147294673.95707                        46.000
> 2020 05 19 16 05  1.0000000  0 48
C05                                                                                                                                  39881024.901 6 207670960.94806                        36.000    39881026.002 6 160584363.37206                        41.000    39881029.775 6 168749684.86706                        37.000
C06                                                                                                                                  40658609.377 5 211720069.74905                        34.000    40658610.162 6 163715378.85406                        39.000    40658612.433 6 172039896.77106                        37.000
C09                                                                                                                                  40401011.993 6 210378668.98406                        36.000    40401014.517 6 162678149.50106                        40.000    40401014.430 6 170949920.68406                        36.000
C11                                                                                                                                  25420536.177 6 132371395.12106                        37.000    25420537.368 7 102357956.81007                        43.000    25420538.990 6 107562613.40306                        41.000
C14                                                                                                                                  22757876.650 7 118506236.72207                        46.000    22757876.419 8  91636539.20908                        48.000    22757877.843 7  96296030.92807                        46.000
C16                                                                                                                                  40550295.665 6 211156047.25306                        37.000    40550302.235 6 163279267.17806                        41.000    40550301.195 5 171581602.62505                        35.000
C23  26689183.924 6 140252585.00506                        36.000    26689186.288 6 104734073.25006                        41.000    26689180.825 6 138977558.90906                        37.000                                                                    26689184.097 6 112930618.07306                        39.000
C27  24381079.955 6 128123448.44406                        41.000    24381081.593 7  95676613.90607                        44.000    24381077.851 7 126958681.47607                        43.000                                                                    24381083.719 7 103164348.94407                        42.000
C28  21785054.818 8 114481235.88608                        48.000    21785055.707 8  85489236.34508                        50.000    21785053.049 8 113440493.96708                        51.000                                                                    21785058.546 8  92179712.35008                        50.000
C33  23133254.455 7 121566076.88907                        46.000    23133281.242 7  90779972.48907                        47.000    23133251.685 7 120460921.41007                        47.000                                                                    23133270.327 7  97884438.69707                        46.000
C37  24902830.491 6 130865250.27906                        40.000    24902836.876 7  97724075.15607                        44.000    24902827.622 7 129675562.75207                        42.000                                                                    24902838.109 7 105372049.72307                        43.000
E01  25057373.825 7 131677390.51807                        44.000    25057377.186 7 106881007.60907                        43.000    25057375.522 7  98330523.54207                        46.000    25057374.352 7 100895662.93407                        46.000    25057374.861 8  99613095.30808                        49.000
E03  27597204.893 6 145024280.49506                        37.000    27597208.257 6 117714531.04006                        38.000    27597208.588 7 108297376.13307                        42.000    27597207.281 7 111122517.28607                        42.000    27597207.591 7 109709948.28207                        45.000
E07  27307289.770 6 143500806.06306                        36.000    27307294.070 6 116477962.62806                        39.000    27307295.915 7 107159736.43307                        42.000    27307294.076 7 109955179.01707                        42.000    27307295.084 7 108557450.30407                        45.000
E08  24191003.675 6 127124592.70706                        40.000    24191009.125 6 103185564.05906                        41.000    24191006.213 7  94930706.15807                        44.000    24191004.786 7  97407158.57707                        45.000    24191005.163 8  96168933.43608                        48.000
E13  23829733.291 7 125226086.44807                        46.000    23829736.623 7 101644565.00807                        47.000    23829734.714 8  93512996.54508                        49.000    23829733.834 8  95952461.35608                        51.000    23829734.249 8  94732731.02008                        53.000
E15  27435458.731 6 144174299.79306                        36.000    27435463.080 6 117024605.09106                        37.000    27435464.229 6 107662638.61106                        41.000    27435463.293 7 110471224.87607                        43.000    27435463.420 7 109066941.81007                        45.000
E21  25376720.306 6 133355559.84806                        41.000    25376723.825 6 108243159.00806                        41.000    25376723.359 7  99583703.28807                        46.000    25376722.441 7 102181532.56107                        47.000    25376722.448 8 100882618.99708                        49.000
E26  23121825.047 7 121506013.30707                        47.000    23121827.646 7  98625021.31407                        46.000    23121827.658 8  90735019.55808                        49.000    23121826.797 8  93102015.33708                        50.000    23121827.105 8  91918518.51908                        52.000
E27  28509965.734 5 149820870.34105                        31.000    28509974.263 5 121607845.01305                        31.000    28509974.916 6 111879244.11306                        36.000    28509973.089 6 114797802.90506                        36.000    28509973.703 6 113338536.57906                        39.000
E31  27892739.930 6 146577333.97506                        36.000    27892741.389 6 118975123.57906                        37.000    27892742.914 6 109457123.49506                        40.000    27892742.470 7 112312519.81007                        43.000    27892742.489 7 110884825.72307                        44.000
E33  28019139.465 6 147241579.45306                        36.000    28019144.199 6 119514296.10606                        37.000    28019142.431 6 109953142.96606                        40.000    28019141.354 7 112821477.86507                        42.000    28019141.622 7 111387314.99107                        44.000
G01  23951966.814 6 125868445.09206                        40.000    23951966.560 4        24.000    23951971.233 4  98079328.20504                        24.000    23951971.323 6  98079334.21206                        39.000    23951968.472 7  93992680.88707                        44.000
G07  24852244.351 6 130599412.32106                        38.000    24852243.860 3        19.000    24852245.322 3 101765781.16303                        19.000    24852244.235 5 101765783.12705                        35.000
G08  20895594.987 8 109807074.46508                        49.000    20895594.388 8        52.000    20895596.933 8  85563963.79108                        52.000    20895597.939 7  85563979.78607                        47.000    20895594.040 8  81998799.40408                        51.000
G10  21133909.626 8 111059439.75808                        51.000    21133909.085 8        52.000    21133911.688 8  86539832.22308                        52.000    21133911.914 7  86539835.22707                        46.000    21133908.311 8  82934001.28408                        51.000
G11  22194120.395 7 116630889.26007                        43.000    22194119.711 4        27.000    22194119.679 4  90881210.89704                        27.000
G16  21926193.863 7 115222915.12007                        44.000    21926192.983 4        29.000    21926192.936 4  89784085.04904                        29.000
G20  22471168.760 6 118086785.38506                        41.000    22471167.499 4        25.000    22471167.905 4  92015679.73704                        25.000
G21  24930000.891 6 131008032.51206                        37.000    24929999.742 2        15.000    24930000.390 2 102084177.39602                        15.000
G22  24882694.298 6 130759461.81106                        38.000    24882693.301 2        17.000    24882696.069 2 101890512.01202                        17.000
G26  24242452.562 6 127394920.84606                        38.000    24242451.982 5        31.000    24242457.550 5  99268797.35805                        31.000    24242457.925 6  99268774.34506                        36.000    24242456.979 7  95132579.22107                        45.000
G27  20304615.937 8 106701469.81908                        50.000    20304615.325 9        54.000    20304617.280 9  83144012.72209                        54.000    20304617.701 8  83144014.72708                        48.000    20304615.444 8  79679670.29908                        53.000
G30  25466431.147 5 133826998.10905                        34.000    25466430.776 1        11.000    25466433.661 1 104280774.33201                        11.000    25466434.855 5 104280782.33005                        31.000    25466432.851 5  99935750.14905                        35.000
G32  24845570.712 6 130564367.85206                        37.000    24845570.422 5        30.000    24845575.511 5 101738490.72905                        30.000    24845576.466 6 101738494.76406                        37.000    24845574.386 7  97499410.01707                        42.000
R01  24058929.128 6 128608766.36206                        36.000    24058938.975 5 100029089.05405                        33.000
R06  23272317.560 6 124185515.34606                        40.000
R07  20864649.090 7 111690054.69807                        47.000    20864653.777 7  86870108.15007                        45.000
R08  21444644.084 7 114835111.39807                        46.000    21444649.059 7  89316231.97907                        43.000
R12  23201236.172 7 123936809.18907                        43.000    23201244.284 6  96395341.91106                        40.000
R13  21115781.780 6 112757066.89806                        36.000    21115785.489 6  87699973.60606                        37.000
R14  22186616.433 7 118267153.80607                        46.000    22186621.556 7  91985584.73807                        44.000
R22  20836140.862 8 111224714.03508                        48.000    20836145.472 7  86508138.58407                        45.000
R23  20247528.264 8 108310593.66208                        51.000    20247533.443 6  84241627.00806                        40.000
R24  22832849.287 7 122097504.17307                        43.000    22832853.724 6  94964754.37206                        39.000
S23  38217589.762 6 200834795.19406                        41.000    38217564.665 7 149973930.83707                        43.000
S25  37560839.068 7 197383550.64607                        43.000
S36  37534841.932 7 197246926.85507                        44.000    37534815.041 7 147294675.76707                        46.000
> 2020 05 19 16 05  2.0000000  0 48
C05                                                                                                                                  39881027.486 6 207670974.44006                        36.000    39881028.778 6 160584373.81106                        41.000    39881032.303 6 168749695.82706                        37.000
C06                                                                                                                                  40658439.171 5 211719182.95005                        34.000    40658439.872 6 163714693.11706                        39.000    40658442.118 6 172039176.17506                        37.000
C09                                                                                                                                  40400693.162 6 210377009.02706                        36.000    40400695.728 6 162676865.92106                        40.000    40400695.708 5 170948571.85705                        35.000
C11                                                                                                                                  25420987.775 6 132373746.25306                        37.000    25420988.907 7 102359774.86207                        43.000    25420990.493 6 107564523.90506                        41.000
C14                                                                                                                                  22757808.324 7 118505879.91107                        46.000    22757807.992 8  91636263.30308                        48.000    22757809.344 7  96295740.98607                        46.000
C16                                                                                                                                  40550090.357 6 211154977.00106                        37.000    40550096.666 6 163278439.61206                        41.000    40550095.531 5 171580733.00005                        35.000
C23  26689765.013 5 140255639.04605                        35.000    26689767.551 6 104736353.84806                        41.000    26689762.509 6 138980585.15506                        37.000                                                                    26689765.244 6 112933077.14006                        38.000
C27  24380626.040 6 128121063.26206                        41.000    24380627.745 7  95674832.76407                        44.000    24380623.946 7 126956317.98007                        43.000                                                                    24380629.855 7 103162428.40407                        42.000
C28  21784963.833 8 114480757.88208                        48.000    21784964.784 8  85488879.39508                        50.000    21784962.134 8 113440020.30908                        51.000                                                                    21784967.590 8  92179327.46308                        50.000
C33  23132889.564 7 121564159.38907                        46.000    23132916.389 7  90778540.58907                        47.000    23132886.861 7 120459021.33807                        47.000                                                                    23132905.438 7  97882894.73207                        46.000
C37  24903252.014 6 130867465.38806                        40.000    24903258.441 7  97725729.30007                        44.000    24903249.207 7 129677757.71207                        42.000                                                                    24903259.684 7 105373833.32607                        43.000
E01  25057391.134 7 131677481.24507                        44.000    25057394.325 7 106881081.25207                        43.000    25057392.808 7  98330591.29907                        46.000    25057391.604 7 100895732.45007                        46.000    25057392.130 8  99613163.94508                        49.000
E03  27597361.438 6 145025103.27606                        37.000    27597364.637 6 117715198.88606                        38.000    27597365.094 7 108297990.54707                        42.000    27597363.849 7 111123147.72707                        42.000    27597364.156 7 109710570.71007                        45.000
E07  27306749.979 6 143497968.91506                        37.000    27306754.047 6 116475659.75806                        39.000    27306755.982 7 107157617.78807                        42.000    27306754.186 7 109953005.10407                        42.000    27306755.175 7 108555304.02507                        45.000
E08  24190719.071 6 127123097.20106                        40.000    24190724.551 6 103184350.16306                        40.000    24190721.583 7  94929589.37707                        44.000    24190720.243 7  97406012.66307                        45.000    24190720.594 8  96167802.09008                        48.000
E13  23829939.714 7 125227171.23107                        46.000    23829943.013 7 101645445.50807                        47.000    23829941.127 8  93513806.60408                        49.000    23829940.240 8  95953292.54608                        51.000    23829940.677 8  94733551.64408                        53.000
E15  27435874.262 6 144176483.59906                        36.000    27435878.526 6 117026377.65506                        37.000    27435879.794 6 107664269.36706                        41.000    27435878.866 7 110472898.17707                        43.000    27435878.972 7 109068593.83907                        45.000
E21  25377208.697 6 133358126.35006                        41.000    25377212.201 6 108245242.20206                        41.000    25377211.745 7  99585619.83307                        46.000    25377210.848 7 102183499.10007                        47.000    25377210.843 8 100884560.53908                        49.000
E26  23121629.870 7 121504987.30307                        47.000    23121632.430 7  98624188.51807                        46.000    23121632.453 8  90734253.38408                        49.000    23121631.545 8  93101229.17308                        50.000    23121631.865 8  91917742.35108                        52.000
E27  28510565.296 5 149824020.38705                        30.000    28510573.383 5 121610401.87905                        31.000    28510574.390 6 111881596.42006                        37.000    28510572.530 6 114800216.56806                        36.000    28510573.209 6 113340919.56306                        39.000
E31  27892311.316 6 146575082.42306                        36.000    27892312.954 6 118973296.01106                        37.000    27892314.478 6 109455442.15006                        40.000    27892314.010 7 112310794.59407                        43.000    27892314.041 7 110883122.44107                        44.000
E33  28018732.953 6 147239442.87006                        36.000    28018737.572 6 119512561.88306                        37.000    28018735.892 6 109951547.48806                        40.000    28018734.709 7 112819840.75307                        42.000    28018735.057 7 111385698.69407                        44.000
G01  23951377.792 6 125865349.53706                        39.000    23951377.538 4        24.000    23951382.159 4  98076916.08704                        24.000    23951381.989 6  98076922.10206                        40.000    23951379.447 7  93990369.27707                        44.000
G07  24852427.372 6 130600375.93606                        38.000    24852426.881 3        19.000    24852428.685 3 101766532.02903                        19.000    24852427.722 5 101766534.02505                        34.000
G08  20895278.252 8 109805410.50708                        49.000    20895277.653 8        52.000    20895280.293 8  85562667.20208                        52.000    20895281.283 7  85562683.20307                        47.000    20895277.437 8  81997556.84608                        51.000
G10  21134016.654 8 111060002.14008                        50.000    21134016.118 8        52.000    21134018.699 8  86540270.44408                        52.000    21134018.838 7  86540273.44707                        46.000    21134015.329 8  82934421.24008                        51.000
G11  22193604.636 7 116628177.74307                        43.000    22193603.957 4        27.000    22193603.699 4  90879098.03204                        27.000
G16  21926766.150 7 115225922.68207                        44.000    21926765.274 4        29.000    21926765.275 4  89786428.60404                        29.000
G20  22471665.377 6 118089394.99506                        41.000    22471664.112 4        25.000    22471664.483 4  92017713.19804                        25.000
G21  24930495.023 6 131010628.58406                        37.000    24930493.883 2        15.000    24930494.406 2 102086200.30102                        15.000
G22  24881984.890 6 130755734.17706                        38.000    24881983.889 2        17.000    24881986.722 2 101887607.37702                        17.000
G26  24243158.875 6 127398632.76006                        38.000    24243158.294 5        30.000    24243163.950 5  99271689.74605                        30.000    24243163.981 6  99271666.73206                        36.000    24243163.352 7  95135351.09907                        45.000
G27  20304680.608 8 106701809.31508                        50.000    20304679.996 9        54.000    20304681.886 9  83144277.26409                        54.000    20304682.334 8  83144279.26708                        48.000    20304680.038 8  79679923.81708                        53.000
G30  25466379.176 5 133826724.28605                        34.000    25466378.810 1        11.000    25466381.566 1 104280560.98901                        11.000    25466382.772 5 104280568.92405                        31.000    25466380.927 6  99935545.65506                        36.000
G32  24845045.116 6 130561604.40906                        36.000    24845044.826 5        31.000    24845049.689 5 101736337.40805                        31.000    24845050.588 6 101736341.44506                        37.000    24845048.622 7  97497346.41307                        42.000
R01  24058096.430 6 128604313.84606                        36.000    24058105.863 5 100025625.98905                        33.000
R06  23272905.297 6 124188649.42306                        40.000
R07  20864624.285 7 111689921.41807                        47.000    20864628.948 7  86870004.49007                        45.000
R08  21443993.734 7 114831630.08307                        46.000    21443998.986 7  89313524.28707                        43.000
R12  23202037.969 7 123941093.14107                        43.000    23202046.359 6  96398673.85706                        40.000
R13  21116185.171 5 112759222.23605                        35.000    21116189.373 6  87701650.01306                        37.000
R14  22186301.510 7 118265475.81107                        46.000    22186306.866 7  91984279.63107                        44.000
R22  20836481.780 8 111226533.79008                        48.000    20836486.379 7  86509553.94807                        45.000
R23  20247260.634 8 108309162.16108                        51.000    20247265.914 6  84240513.61306                        40.000
R24  22832334.056 7 122094751.25207                        43.000    22832339.422 6  94962613.21706                        39.000
S23  38217589.708 6 200834802.14706                        41.000    38217565.921 7 149973936.03607                        43.000
S25  37560814.219 7 197383418.70107                        44.000
S36  37534841.556 7 197246928.93507                        44.000    37534815.408 7 147294677.58607                        46.000
> 2020 05 19 16 05  3.0000000  0 48
C05                                                                                                                                  39881030.266 6 207670988.21506                        36.000    39881031.390 6 160584384.46506                        41.000    39881035.008 6 168749707.01806                        37.000
C06                                                                                                                                  40658268.759 5 211718296.54205                        34.000    40658269.626 6 163714007.70906                        39.000    40658271.849 6 172038455.90506                        37.000
C09                                                                                                                                  40400374.279 6 210375349.44606                        36.000    40400377.008 6 162675582.63106                        40.000    40400377.106 5 170947223.29705                        35.000
C11                                                                                                                                  25421439.060 6 132376097.75006                        37.000    25421440.588 7 102361593.17307                        43.000    25421442.044 6 107566434.66906                        41.000
C14                                                                                                                                  22757739.937 7 118505523.90207                        46.000    22757739.708 8  91635988.01308                        48.000    22757740.948 7  96295451.70007                        46.000
C16                                                                                                                                  40549885.053 6 211153907.20706                        37.000    40549891.123 6 163277612.36406                        41.000    40549890.044 5 171579863.68505                        35.000
C23  26690346.136 6 140258693.18606                        36.000    26690348.765 6 104738634.53606                        41.000    26690343.720 6 138983611.58106                        37.000                                                                    26690346.510 6 112935536.33306                        39.000
C27  24380172.264 6 128118678.37206                        41.000    24380173.953 7  95673051.84307                        44.000    24380169.965 7 126953954.77807                        43.000                                                                    24380176.090 7 103160508.10607                        42.000
C28  21784872.999 8 114480280.35608                        48.000    21784873.931 8  85488522.80208                        50.000    21784871.224 8 113439547.12308                        51.000                                                                    21784876.725 8  92178942.96108                        50.000
C33  23132524.779 7 121562242.59107                        46.000    23132551.597 7  90777109.21007                        47.000    23132522.140 7 120457121.96607                        47.000                                                                    23132540.658 7  97881351.33507                        46.000
C37  24903673.546 6 130869681.05506                        40.000    24903680.055 7  97727383.84807                        44.000    24903670.954 6 129679953.23106                        41.000                                                                    24903681.342 7 105375617.35707                        43.000
E01  25057408.472 7 131677572.71007                        44.000    25057411.732 7 106881155.49507                        43.000    25057410.214 7  98330659.59307                        46.000    25057409.009 7 100895802.53507                        47.000    25057409.534 8  99613233.13408                        49.000
E03  27597518.416 6 145025926.75306                        37.000    27597521.386 6 117715867.27906                        38.000    27597521.793 7 108298605.47707                        42.000    27597520.573 7 111123778.69707                        42.000    27597520.855 7 109711193.65907                        45.000
E07  27306209.979 6 143495132.03106                        36.000    27306214.066 6 116473357.10506                        39.000    27306216.102 7 107155499.34807                        42.000    27306214.338 7 109950831.39207                        42.000    27306215.348 7 108553157.94807                        45.000
E08  24190434.529 6 127121602.30706                        40.000    24190440.088 6 103183136.78506                        40.000    24190437.110 7  94928473.05607                        44.000    24190435.751 7  97404867.22207                        45.000    24190436.123 8  96166671.20808                        48.000
E13  23830146.152 7 125228256.37007                        46.000    23830149.498 7 101646326.30407                        47.000    23830147.601 8  93514616.93508                        49.000    23830146.756 8  95954124.01708                        51.000    23830147.163 8  94734372.54608                        53.000
E15  27436289.864 6 144178667.59806                        36.000    27436294.045 6 117028150.39506                        37.000    27436295.366 6 107665900.30606                        41.000    27436294.523 7 110474571.65807                        43.000    27436294.574 7 109070246.05007                        45.000
E21  25377697.283 7 133360693.37007                        42.000    25377700.867 6 108247325.82706                        41.000    25377700.212 7  99587536.76407                        46.000    25377699.356 7 102185466.04307                        47.000    25377699.341 8 100886502.47608                        49.000
E26  23121434.688 7 121503961.69007                        47.000    23121437.219 7  98623356.04007                        46.000    23121437.243 8  90733487.50508                        49.000    23121436.368 8  93100443.31608                        50.000    23121436.692 8  91916966.48208                        52.000
E27  28511164.576 5 149827170.59305                        30.000    28511172.830 5 121612958.87705                        31.000    28511173.881 6 111883948.83106                        36.000    28511172.092 6 114802630.35706                        36.000    28511172.773 6 113343302.66506                        39.000
E31  27891882.848 6 146572831.40806                        36.000    27891884.400 6 118971468.89006                        37.000    27891886.054 6 109453761.20206                        40.000    27891885.678 7 112309069.79107                        43.000    27891885.686 7 110881419.56607                        44.000
E33  28018326.299 6 147237306.60406                        36.000    28018330.952 6 119510827.89006                        37.000    28018329.289 6 109949952.20606                        40.000    28018328.191 7 112818203.86107                        42.000    28018328.533 7 111384082.60707                        44.000
G01  23950788.562 6 125862254.40706                        40.000    23950788.308 4        24.000    23950793.247 4  98074504.29904                        24.000    23950793.172 6  98074510.30506                        39.000    23950790.426 7  93988057.98607                        44.000
G07  24852610.889 6 130601340.27906                        39.000    24852610.393 3        19.000    24852612.134 3 101767283.45103                        19.000    24852611.301 5 101767285.46405                        34.000
G08  20894961.611 8 109803747.11008                        49.000    20894961.012 8        52.000    20894963.751 8  85561371.05008                        52.000    20894964.780 7  85561387.05107                        47.000    20894960.900 8  81996314.69308                        51.000
G10  21134123.882 8 111060565.38508                        51.000    21134123.341 8        52.000    21134125.879 8  86540709.33608                        52.000    21134125.961 7  86540712.34207                        46.000    21134122.513 8  82934841.85108                        51.000
G11  22193088.565 7 116625466.66007                        43.000    22193087.886 4        27.000    22193087.803 4  90876985.50004                        27.000
G16  21927338.482 7 115228930.86707                        44.000    21927337.602 4        29.000    21927337.721 4  89788772.64604                        29.000
G20  22472162.083 6 118092005.26906                        41.000    22472160.823 4        25.000    22472161.173 4  92019747.17904                        25.000
G21  24930989.065 6 131013224.84006                        37.000    24930987.921 2        15.000    24930988.489 2 102088223.35702                        15.000
G22  24881275.548 6 130752006.84706                        38.000    24881274.551 2        17.000    24881277.419 2 101884702.96902                        17.000
G26  24243865.401 6 127402344.95706                        38.000    24243864.820 5        30.000    24243870.373 5  99274582.35705                        30.000    24243870.294 6  99274559.34806                        36.000    24243869.779 7  95138123.18407                        45.000
G27  20304745.330 8 106702149.47008                        50.000    20304744.717 9        54.000    20304746.617 9  83144542.32009                        54.000    20304747.076 8  83144544.32408                        48.000    20304744.786 8  79680177.83208                        53.000
G30  25466327.303 5 133826451.23605                        34.000    25466326.937 1        11.000    25466329.599 1 104280348.20101                        11.000    25466330.788 5 104280356.15705                        31.000    25466328.963 6  99935341.74006                        36.000
G32  24844519.214 6 130558841.22706                        37.000    24844518.918 5        31.000    24844523.893 5 101734184.29205                        31.000    24844524.779 6 101734188.31906                        37.000    24844522.816 7  97495283.01607                        42.000
R01  24057264.159 6 128599861.47406                        37.000    24057273.699 5 100022163.01705                        33.000
R06  23273493.141 6 124191784.29506                        40.000
R07  20864599.583 7 111689789.28207                        47.000    20864604.422 7  86869901.72207                        45.000
R08  21443343.755 7 114828149.49007                        46.000    21443349.322 7  89310817.17207                        43.000
R12  23202840.153 7 123945377.38607                        43.000    23202848.173 6  96402006.05406                        40.000
R13  21116589.041 6 112761378.62106                        36.000    21116593.279 6  87703327.18806                        37.000
R14  22185986.841 7 118263798.90207                        47.000    22185992.162 7  91982975.36807                        44.000
R22  20836822.829 8 111228353.99608                        48.000    20836827.144 7  86510969.66407                        45.000
R23  20246993.119 8 108307731.15508                        51.000    20246998.346 6  84239400.62006                        40.000
R24  22831819.155 7 122091998.62107                        43.000    22831825.163 6  94960472.30006                        39.000
S23  38217590.281 6 200834809.43006                        41.000    38217567.316 7 149973941.46007                        43.000
S25  37560790.198 7 197383287.01507                        44.000
S36  37534841.677 7 197246931.26007                        44.000    37534815.859 7 147294679.62607                        46.000
> 2020 05 19 16 05  4.0000000  0 48
C05                                                                                                                                  39881032.925 6 207671001.66006                        36.000    39881034.015 6 160584394.86106                        41.000    39881037.598 6 168749717.95006                        37.000
C06                                                                                                                                  40658098.710 5 211717410.03405                        34.000    40658099.439 6 163713322.21406                        39.000    40658101.549 6 172037735.54006                        37.000
C09                                                                                                                                  40400055.585 6 210373689.65706                        36.000    40400058.233 6 162674299.20506                        40.000    40400058.437 5 170945874.60405                        35.000
C11                                                                                                                                  25421890.475 6 132378449.00806                        37.000    25421892.137 7 102363411.33007                        43.000    25421893.607 6 107568345.26206                        41.000
C14                                                                                                                                  22757671.636 7 118505168.16507                        46.000    22757671.492 8  91635712.93508                        48.000    22757672.614 7  96295162.63307                        46.000
C16                                                                                                                                  40549679.918 6 211152837.29406                        37.000    40549685.670 6 163276785.02906                        41.000    40549684.662 5 171578994.28805                        35.000
C23  26690927.192 5 140261746.94905                        35.000    26690929.910 6 104740914.93406                        41.000    26690925.223 6 138986637.56006                        37.000                                                                    26690927.624 6 112937995.19806                        39.000
C27  24379718.449 6 128116293.23906                        41.000    24379720.012 7  95671270.74407                        44.000    24379716.055 7 126951591.33207                        43.000                                                                    24379722.258 7 103158587.61807                        42.000
C28  21784782.139 8 114479802.75408                        48.000    21784783.059 8  85488166.15508                        50.000    21784780.379 8 113439073.86708                        51.000                                                                    21784785.845 8  92178558.40208                        50.000
C33  23132160.066 7 121560325.96107                        46.000    23132186.886 7  90775677.95907                        47.000    23132157.495 7 120455222.75307                        47.000                                                                    23132175.905 7  97879808.07207                        46.000
C37  24904095.263 6 130871896.71706                        40.000    24904101.682 7  97729038.40307                        43.000    24904092.499 6 129682148.75506                        41.000                                                                    24904102.979 7 105377401.40007                        43.000
E01  25057425.912 7 131677664.38007                        44.000    25057429.140 7 106881229.90507                        43.000    25057427.677 7  98330728.04507                        46.000    25057426.417 7 100895872.77307                        47.000    25057426.978 8  99613302.48008                        49.000
E03  27597675.097 6 145026750.37006                        37.000    27597678.055 6 117716535.80306                        38.000    27597678.470 7 108299220.50907                        42.000    27597677.294 7 111124409.78007                        42.000    27597677.586 7 109711816.71707                        45.000
E07  27305670.138 6 143492294.85806                        37.000    27305674.261 6 116471054.21806                        39.000    27305676.217 7 107153380.69707                        42.000    27305674.445 7 109948657.46607                        42.000    27305675.449 7 108551011.66207                        45.000
E08  24190150.244 6 127120107.49106                        40.000    24190155.608 6 103181923.45806                        40.000    24190152.658 7  94927356.79707                        44.000    24190151.332 7  97403721.84807                        45.000    24190151.669 8  96165540.39208                        48.000
E13  23830352.616 7 125229341.32707                        46.000    23830355.976 7 101647206.94907                        47.000    23830354.092 8  93515427.13308                        49.000    23830353.190 8  95954955.35208                        51.000    23830353.631 8  94735193.31208                        53.000
E15  27436705.261 6 144180851.32806                        36.000    27436709.683 6 117029922.90906                        37.000    27436710.970 6 107667531.00506                        41.000    27436710.049 7 110476244.89107                        43.000    27436710.122 7 109071898.01407                        45.000
E21  25378185.662 6 133363260.36306                        41.000    25378189.397 6 108249409.43506                        41.000    25378188.704 7  99589453.67307                        46.000    25378187.820 7 102187432.95807                        47.000    25378187.821 8 100888444.38808                        49.000
E26  23121239.508 7 121502935.92507                        47.000    23121242.005 7  98622523.44407                        47.000    23121242.064 8  90732721.51408                        49.000    23121241.191 8  93099657.34408                        50.000    23121241.497 8  91916190.50108                        52.000
E27  28511763.550 5 149830320.36305                        30.000    28511772.285 5 121615515.47605                        30.000    28511773.273 6 111886300.94506                        37.000    28511771.486 6 114805043.85206                        36.000    28511772.252 6 113345685.47206                        39.000
E31  27891454.594 6 146570580.40106                        36.000    27891456.055 6 118969641.79606                        37.000    27891457.678 6 109452080.25206                        40.000    27891457.212 7 112307344.99807                        42.000    27891457.341 7 110879716.69307                        44.000
E33  28017919.861 6 147235170.07106                        36.000    28017924.283 6 119509093.69006                        37.000    28017922.797 6 109948356.75106                        41.000    28017921.565 7 112816566.78207                        42.000    28017921.968 7 111382466.33907                        44.000
G01  23950199.501 6 125859159.15306                        40.000    23950199.251 4        24.000    23950204.294 4  98072092.41704                        24.000    23950204.207 6  98072098.42106                        39.000    23950201.363 7  93985746.60107                        44.000
G07  24852794.198 6 130602304.78806                        39.000    24852793.702 3        19.000    24852795.618 3 101768035.00303                        19.000    24852795.589 5 101768037.04305                        34.000
G08  20894645.164 8 109802083.71308                        49.000    20894644.565 8        52.000    20894647.214 8  85560074.89808                        52.000    20894648.174 7  85560090.90107                        47.000    20894644.397 8  81995072.55408                        51.000
G10  21134231.230 8 111061128.96808                        51.000    21134230.694 8        52.000    21134233.117 8  86541148.49308                        52.000    21134233.257 7  86541151.49907                        46.000    21134229.762 8  82935262.70908                        51.000
G11  22192572.563 7 116622755.44407                        43.000    22192571.888 4        27.000    22192571.854 4  90874872.86604                        27.000
G16  21927910.827 7 115231939.13407                        44.000    21927909.947 4        29.000    21927910.138 4  89791116.75204                        29.000
G20  22472658.868 6 118094615.61606                        41.000    22472657.608 4        25.000    22472657.894 4  92021781.21904                        25.000
G21  24931483.432 6 131015820.77906                        37.000    24931482.292 2        15.000    24931482.500 2 102090246.15202                        15.000
G22  24880566.125 6 130748279.27306                        38.000    24880565.133 2        16.000    24880568.117 2 101881798.37302                        16.000
G26  24244571.911 6 127406056.91306                        38.000    24244571.326 5        30.000    24244576.781 5  99277474.78305                        30.000    24244576.572 6  99277451.77006                        36.000    24244576.157 7  95140895.08907                        45.000
G27  20304810.060 8 106702489.75608                        50.000    20304809.448 9        54.000    20304811.371 9  83144807.47809                        54.000    20304811.822 8  83144809.47808                        48.000    20304809.556 8  79680431.93908                        53.000
G30  25466275.405 5 133826178.42305                        34.000    25466275.021 1        11.000    25466277.696 1 104280135.61901                        11.000    25466278.753 5 104280143.59105                        31.000    25466277.160 6  99935138.04606                        36.000
G32  24843993.141 6 130556077.77006                        37.000    24843992.851 5        31.000    24843998.062 5 101732030.95505                        31.000    24843999.393 6 101732034.97206                        37.000    24843996.973 7  97493219.39707                        42.000
R01  24056431.041 6 128595408.71806                        37.000    24056440.843 5 100018699.77005                        33.000
R06  23274080.985 6 124194919.45206                        40.000
R07  20864574.924 7 111689657.73607                        47.000    20864579.951 7  86869799.41207                        45.000
R08  21442694.068 7 114824669.07007                        46.000    21442699.221 7  89308110.17907                        43.000
R12  23203641.991 7 123949661.40707                        43.000    23203650.482 6  96405338.05906                        40.000
R13  21116992.779 5 112763535.44505                        35.000    21116997.326 6  87705004.71206                        37.000
R14  22185672.283 7 118262122.51407                        47.000    22185677.261 7  91981671.50307                        44.000
R22  20837163.848 7 111230174.11607                        47.000    20837167.946 7  86512385.31507                        44.000
R23  20246725.577 8 108306300.07308                        51.000    20246730.878 6  84238287.54906                        40.000
R24  22831304.123 7 122089245.78307                        43.000    22831310.499 6  94958331.20506                        39.000
S23  38217590.527 6 200834816.37306                        41.000    38217568.636 7 149973946.65307                        43.000
S25  37560765.438 7 197383155.01007                        44.000
S36  37534842.245 7 197246933.31207                        44.000    37534816.289 7 147294681.44607                        46.000
> 2020 05 19 16 05  5.0000000  0 48
C05                                                                                                                                  39881035.204 6 207671014.94306                        36.000    39881036.716 6 160584405.11806                        41.000    39881040.245 6 168749728.74006                        37.000
C06                                                                                                                                  40657928.290 5 211716523.50005                        34.000    40657929.035 6 163712636.68006                        40.000    40657931.252 6 172037015.13506                        37.000
C09                                                                                                                                  40399736.924 6 210372029.79806                        36.000    40399739.596 6 162673015.67406                        40.000    40399739.653 6 170944525.81206                        36.000
C11                                                                                                                                  25422341.928 6 132380800.17706                        37.000    25422343.787 7 102365229.40107                        43.000    25422345.103 6 107570255.78106                        41.000
C14                                                                                                                                  22757603.372 7 118504812.77507                        46.000    22757603.303 8  91635438.13108                        48.000    22757604.374 7  96294873.85707                        46.000
C16                                                                                                                                  40549474.399 6 211151767.33606                        37.000    40549480.043 6 163275957.68906                        41.000    40549479.082 5 171578124.86205                        35.000
C23  26691508.257 5 140264800.38505                        35.000    26691510.972 6 104743195.07306                        41.000    26691506.165 6 138989663.21806                        36.000                                                                    26691508.730 6 112940453.78006                        39.000
C27  24379264.476 6 128113907.96106                        41.000    24379266.087 7  95669489.53207                        44.000    24379262.181 7 126949227.74107                        43.000                                                                    24379268.313 7 103156667.00007                        42.000
C28  21784691.245 8 114479325.17608                        48.000    21784692.186 8  85487809.51708                        50.000    21784689.477 8 113438600.62808                        51.000                                                                    21784694.972 8  92178173.85408                        50.000
C33  23131795.321 7 121558409.56507                        46.000    23131822.196 7  90774246.89007                        47.000    23131792.751 7 120453323.78107                        47.000                                                                    23131811.277 7  97878265.00507                        46.000
C37  24904516.972 6 130874112.47406                        40.000    24904523.366 7  97730693.02407                        44.000    24904514.189 7 129684344.37807                        42.000                                                                    24904524.585 7 105379185.51107                        43.000
E01  25057443.470 7 131677756.33007                        44.000    25057446.713 7 106881304.54007                        43.000    25057445.172 7  98330796.70707                        46.000    25057443.907 7 100895943.22807                        47.000    25057444.471 8  99613372.03808                        49.000
E03  27597831.861 6 145027574.20106                        37.000    27597834.847 6 117717204.50706                        39.000    27597835.221 7 108299835.73107                        42.000    27597834.029 7 111125041.04207                        42.000    27597834.356 7 109712439.95907                        45.000
E07  27305130.093 6 143489457.50306                        37.000    27305134.327 6 116468751.16406                        39.000    27305136.259 7 107151261.88807                        42.000    27305134.594 7 109946483.38607                        42.000    27305135.509 7 108548865.21707                        45.000
E08  24189865.844 6 127118612.82806                        40.000    24189871.089 6 103180710.26206                        40.000    24189868.288 7  94926240.65907                        44.000    24189866.889 7  97402576.59207                        45.000    24189867.252 8  96164409.69408                        48.000
E13  23830559.074 7 125230426.18107                        46.000    23830562.435 7 101648087.51407                        47.000    23830560.531 8  93516237.25508                        49.000    23830559.624 8  95955786.60308                        51.000    23830560.068 8  94736013.99908                        53.000
E15  27437120.984 6 144183034.82706                        36.000    27437125.230 6 117031695.21206                        37.000    27437126.423 6 107669161.53006                        41.000    27437125.620 7 110477917.96007                        43.000    27437125.621 7 109073549.81407                        45.000
E21  25378674.176 7 133365827.41507                        42.000    25378677.737 6 108251493.06706                        41.000    25378677.206 7  99591370.62407                        46.000    25378676.271 7 102189399.91207                        47.000    25378676.324 8 100890386.34108                        49.000
E26  23121044.247 7 121501910.09207                        47.000    23121046.793 7  98621690.78707                        46.000    23121046.868 8  90731955.47108                        49.000    23121046.008 8  93098871.31908                        50.000    23121046.293 8  91915414.46608                        52.000
E27  28512362.777 5 149833469.88705                        30.000    28512371.698 5 121618071.86905                        31.000    28512372.581 6 111888652.81006                        37.000    28512370.812 6 114807457.06706                        37.000    28512371.620 6 113348068.00906                        40.000
E31  27891026.271 6 146568329.50206                        36.000    27891027.844 6 118967814.74806                        37.000    27891029.249 6 109450399.37506                        40.000    27891028.823 7 112305620.27007                        43.000    27891028.999 7 110878013.89107                        44.000
E33  28017513.017 6 147233033.37206                        36.000    28017517.733 6 119507359.36906                        37.000    28017516.245 6 109946761.17606                        41.000    28017514.963 7 112814929.58307                        42.000    28017515.364 7 111380849.95207                        44.000
G01  23949610.210 6 125856063.88706                        40.000    23949609.965 4        24.000    23949615.332 4  98069680.52104                        24.000    23949615.132 6  98069686.52106                        39.000    23949612.353 7  93983435.19107                        44.000
G07  24852977.609 6 130603269.55906                        39.000    24852977.117 3        19.000    24852979.218 3 101768786.78003                        19.000    24852978.913 5 101768788.81005                        34.000
G08  20894328.621 8 109800420.40508                        49.000    20894328.022 8        52.000    20894330.698 8  85558778.81308                        52.000    20894331.577 7  85558794.82307                        47.000    20894327.874 8  81993830.47508                        51.000
G10  21134338.611 8 111061692.94408                        51.000    21134338.070 8        52.000    21134340.441 8  86541587.95608                        52.000    21134340.503 7  86541590.95907                        46.000    21134337.088 8  82935683.86008                        51.000
G11  22192056.557 7 116620044.17807                        43.000    22192055.878 4        27.000    22192055.905 4  90872760.19504                        27.000
G16  21928483.320 7 115234947.56807                        44.000    21928482.444 4        29.000    21928482.635 4  89793460.98004                        29.000
G20  22473155.664 6 118097226.16706                        41.000    22473154.404 4        25.000    22473154.687 4  92023815.41804                        25.000
G21  24931977.643 6 131018416.44506                        37.000    24931976.508 2        14.000    24931976.422 2 102092268.77002                        14.000
G22  24879856.630 6 130744551.55806                        38.000    24879855.633 2        17.000    24879858.766 2 101878893.67002                        17.000
G26  24245278.415 6 127409768.67506                        38.000    24245277.830 5        30.000    24245283.115 5  99280367.05505                        30.000    24245282.912 6  99280344.05406                        36.000    24245282.501 7  95143666.84707                        45.000
G27  20304874.804 8 106702830.24908                        50.000    20304874.196 9        54.000    20304876.160 9  83145072.79709                        54.000    20304876.687 8  83145074.79608                        48.000    20304874.341 8  79680686.19908                        53.000
G30  25466223.754 5 133825905.94605                        34.000    25466223.370 1        11.000    25466225.847 1 104279923.29001                        11.000    25466226.603 5 104279931.30905                        31.000    25466225.382 6  99934934.57006                        37.000
G32  24843467.430 6 130553314.11906                        37.000    24843467.144 5        31.000    24843472.176 5 101729877.46505                        31.000    24843473.508 6 101729881.48106                        37.000    24843471.027 7  97491155.64107                        42.000
R01  24055597.770 6 128590955.64206                        37.000    24055608.121 5 100015236.28305                        33.000
R06  23274669.073 6 124198054.95606                        39.000
R07  20864550.459 7 111689526.86207                        47.000    20864555.451 7  86869697.61207                        45.000
R08  21442044.392 7 114821188.90707                        46.000    21442049.222 7  89305403.37307                        43.000
R12  23204443.949 7 123953945.28207                        43.000    23204452.401 6  96408669.95506                        40.000
R13  21117396.443 5 112765692.80105                        35.000    21117400.622 6  87706682.65006                        37.000
R14  22185357.863 7 118260446.70207                        47.000    22185362.977 7  91980368.09207                        44.000
R22  20837504.718 8 111231994.23108                        48.000    20837508.834 7  86513800.95407                        44.000
R23  20246458.049 8 108304868.99708                        51.000    20246463.560 6  84237174.48206                        40.000
R24  22830789.071 7 122086492.81207                        43.000    22830795.318 6  94956190.01606                        39.000
S23  38217593.098 6 200834823.13506                        41.000    38217569.888 7 149973951.70107                        43.000
S25  37560739.494 7 197383022.78807                        44.000
S36  37534843.148 7 197246935.17207                        44.000    37534816.673 7 147294683.18907                        46.000
> 2020 05 19 16 05  6.0000000  0 48
C05                                                                                                                                  39881037.583 6 207671028.39706                        36.000    39881039.283 6 160584415.51106                        41.000    39881042.829 6 168749739.66606                        37.000
C06                                                                                                                                  40657758.301 5 211715637.35105                        34.000    40657758.828 6 163711951.43806                        40.000    40657761.025 6 172036295.07906                        37.000
C09                                                                                                                                  40399418.265 6 210370370.25806                        36.000    40399420.814 6 162671732.41006                        40.000    40399420.822 5 170943177.30905                        35.000
C11                                                                                                                                  25422793.499 6 132383151.65606                        37.000    25422795.402 7 102367047.69907                        43.000    25422796.621 6 107572166.54606                        40.000
C14                                                                                                                                  22757535.294 7 118504458.16907                        46.000    22757535.133 8  91635163.92408                        48.000    22757536.265 7  96294585.71807                        46.000
C16                                                                                                                                  40549269.073 6 211150697.77306                        37.000    40549274.666 6 163275130.63006                        41.000    40549273.608 5 171577255.76905                        34.000
C23  26692089.391 6 140267853.85506                        36.000    26692091.994 6 104745475.27406                        41.000    26692087.072 6 138992688.96906                        36.000                                                                    26692089.764 6 112942912.43406                        38.000
C27  24378810.564 6 128111522.96306                        41.000    24378812.199 7  95667708.52207                        44.000    24378808.293 7 126946864.41207                        43.000                                                                    24378814.497 7 103154746.61207                        42.000
C28  21784600.480 8 114478848.04208                        48.000    21784601.385 8  85487453.21608                        50.000    21784598.683 8 113438127.82708                        51.000                                                                    21784604.173 8  92177789.66708                        49.000
C33  23131430.848 7 121556493.83007                        46.000    23131457.640 7  90772816.31607                        47.000    23131428.251 7 120451425.47407                        47.000                                                                    23131446.754 7  97876722.47107                        46.000
C37  24904938.712 6 130876328.74606                        40.000    24904945.130 7  97732348.03007                        44.000    24904935.905 7 129686540.49707                        42.000                                                                    24904946.291 7 105380970.03907                        43.000
E01  25057461.039 7 131677848.98507                        44.000    25057464.432 7 106881379.75007                        43.000    25057462.811 7  98330865.90707                        46.000    25057461.525 7 100896014.22807                        47.000    25057462.116 8  99613442.13808                        49.000
E03  27597988.774 6 145028398.70106                        37.000    27597991.822 6 117717873.76006                        38.000    27597992.072 7 108300451.42207                        42.000    27597990.921 7 111125672.80407                        42.000    27597991.269 7 109713063.68607                        45.000
E07  27304590.311 6 143486620.36506                        37.000    27304594.285 6 116466448.30406                        38.000    27304596.289 7 107149143.25407                        42.000    27304594.664 7 109944309.48007                        42.000    27304595.632 7 108546718.94607                        45.000
E08  24189581.515 6 127117118.76406                        40.000    24189586.747 6 103179497.54206                        40.000    24189584.045 7  94925124.95907                        44.000    24189582.563 7  97401431.78507                        45.000    24189582.950 8  96163279.44108                        48.000
E13  23830765.607 7 125231511.36907                        47.000    23830768.904 7 101648968.34807                        47.000    23830767.051 8  93517047.61808                        49.000    23830766.118 8  95956618.11008                        51.000    23830766.577 8  94736834.93308                        53.000
E15  27437536.531 6 144185218.52106                        36.000    27437540.738 6 117033467.68406                        37.000    27437541.928 6 107670792.21006                        41.000    27437541.198 7 110479591.18107                        43.000    27437541.168 7 109075201.76307                        45.000
E21  25379162.802 7 133368394.95007                        42.000    25379166.329 6 108253577.10506                        41.000    25379165.767 7  99593287.93307                        46.000    25379164.836 7 102191367.24107                        47.000    25379164.911 8 100892328.65908                        49.000
E26  23120849.107 7 121500884.62407                        47.000    23120851.652 7  98620858.42507                        46.000    23120851.762 8  90731189.70108                        49.000    23120850.865 8  93098085.57008                        50.000    23120851.156 8  91914638.70708                        52.000
E27  28512961.889 5 149836619.45805                        30.000    28512971.113 5 121620628.37905                        30.000    28512972.002 6 111891004.79306                        37.000    28512970.283 6 114809870.38206                        37.000    28512971.000 6 113350450.65906                        40.000
E31  27890598.058 6 146566079.09606                        37.000    27890599.618 6 118965988.13706                        36.000    27890601.014 6 109448718.89606                        40.000    27890600.547 7 112303895.94707                        43.000    27890600.770 7 110876311.48907                        44.000
E33  28017106.203 6 147230896.94106                        36.000    28017111.274 6 119505625.24706                        37.000    28017109.715 6 109945165.78806                        41.000    28017108.404 7 112813292.57107                        42.000    28017108.813 7 111379233.75307                        44.000
G01  23949021.428 6 125852968.99906                        40.000    23949021.187 4        24.000    23949026.361 4  98067268.92204                        24.000    23949026.480 6  98067274.92906                        39.000    23949023.420 7  93981124.07307                        44.000
G07  24853161.395 6 130604235.01606                        39.000    24853160.899 3        19.000    24853163.011 3 101769539.08603                        19.000    24853162.669 5 101769541.11205                        34.000
G08  20894012.253 8 109798757.63008                        49.000    20894011.650 8        52.000    20894014.278 8  85557483.14508                        52.000    20894015.194 7  85557499.14407                        47.000    20894011.478 8  81992588.78808                        51.000
G10  21134446.174 8 111062257.77508                        51.000    21134445.633 8        52.000    21134447.921 8  86542028.08508                        52.000    21134447.945 7  86542031.08907                        46.000    21134444.583 8  82936105.65008                        51.000
G11  22191540.598 7 116617333.32707                        43.000    22191539.919 4        27.000    22191540.068 4  90870647.84604                        27.000
G16  21929055.927 7 115237956.58107                        44.000    21929055.051 4        29.000    21929055.226 4  89795805.66504                        29.000
G20  22473652.504 6 118099837.31806                        41.000    22473651.244 4        25.000    22473651.618 4  92025850.08304                        25.000
G21  24932471.661 6 131021012.27806                        37.000    24932470.520 2        14.000    24932470.401 2 102094291.50702                        14.000
G22  24879147.509 6 130740824.09406                        38.000    24879146.517 2        16.000    24879149.441 2 101875989.14902                        16.000
G26  24245984.939 6 127413480.69606                        38.000    24245984.354 5        30.000    24245989.502 5  99283259.53105                        30.000    24245989.316 6  99283236.53506                        36.000    24245988.861 7  95146438.80607                        45.000
G27  20304939.691 8 106703171.36308                        50.000    20304939.079 9        54.000    20304941.075 9  83145338.60109                        54.000    20304941.573 8  83145340.60308                        48.000    20304939.247 8  79680940.92908                        53.000
G30  25466172.064 5 133825634.24805                        33.000    25466171.680 1        11.000    25466174.168 1 104279711.59301                        11.000    25466175.100 5 104279719.60805                        31.000    25466173.676 6  99934731.69606                        37.000
G32  24842941.445 6 130550550.69206                        37.000    24842941.159 5        31.000    24842946.372 5 101727724.15705                        31.000    24842947.703 6 101727728.18106                        37.000    24842945.139 7  97489092.05107                        42.000
R01  24054764.555 6 128586502.70606                        37.000    24054775.025 5 100011772.89305                        33.000
R06  23275256.986 6 124201191.27706                        39.000
R07  20864526.189 7 111689397.11207                        47.000    20864531.302 7  86869596.70107                        45.000
R08  21441394.570 7 114817709.46907                        46.000    21441399.406 7  89302697.15707                        43.000
R12  23205245.888 7 123958229.41807                        43.000    23205254.610 6  96412002.05206                        41.000
R13  21117800.473 6 112767851.07306                        36.000    21117804.505 6  87708361.32306                        37.000
R14  22185043.528 7 118258771.87507                        47.000    22185048.752 7  91979065.44607                        44.000
R22  20837845.660 8 111233814.75308                        48.000    20837849.842 7  86515216.91107                        44.000
R23  20246190.628 8 108303438.36208                        51.000    20246196.011 6  84236061.77306                        40.000
R24  22830274.136 7 122083740.14207                        43.000    22830280.558 6  94954049.04506                        39.000
S23  38217595.812 7 200834830.09607                        42.000    38217571.189 7 149973956.90707                        43.000
S25  37560712.991 7 197382890.73307                        44.000
S36  37534842.392 7 197246937.26707                        44.000    37534817.058 7 147294685.08707                        46.000
> 2020 05 19 16 05  7.0000000  0 48
C05                                                                                                                                  39881040.321 6 207671042.33706                        36.000    39881041.975 6 160584426.29806                        41.000    39881045.558 6 168749751.00006                        37.000
C06                                                                                                                                  40657588.339 5 211714751.82905                        34.000    40657588.866 6 163711266.69806                        40.000    40657590.919 6 172035575.51806                        37.000
C09                                                                                                                                  40399099.590 6 210368711.31306                        36.000    40399102.139 6 162670449.60306                        40.000    40399102.169 5 170941829.25405                        35.000
C11                                                                                                                                  25423245.138 6 132385503.69006                        37.000    25423247.094 7 102368866.44907                        43.000    25423248.289 6 107574077.77306                        41.000
C14                                                                                                                                  22757467.354 7 118504104.60407                        46.000    22757467.216 8  91634890.52708                        48.000    22757468.365 7  96294298.41407                        46.000
C16                                                                                                                                  40549063.906 6 211149628.88106                        37.000    40549069.418 6 163274304.08906                        41.000    40549068.267 5 171576387.17605                        35.000
C23  26692670.511 6 140270907.70406                        36.000    26692673.098 6 104747755.75006                        41.000    26692668.148 6 138995715.04706                        36.000                                                                    26692670.878 6 112945371.37506                        39.000
C27  24378356.862 6 128109138.49006                        41.000    24378358.425 7  95665927.90307                        44.000    24378354.544 7 126944501.61107                        43.000                                                                    24378360.701 7 103152826.64007                        42.000
C28  21784509.745 8 114478371.61508                        48.000    21784510.711 8  85487097.44208                        50.000    21784508.019 8 113437655.73308                        51.000                                                                    21784513.517 8  92177406.05008                        50.000
C33  23131066.493 7 121554579.05007                        46.000    23131093.260 7  90771386.44607                        47.000    23131063.928 7 120449528.09407                        47.000                                                                    23131082.360 7  97875180.69907                        46.000
C37  24905360.550 6 130878545.81106                        40.000    24905367.048 7  97734003.63007                        44.000    24905357.984 6 129688737.40806                        41.000                                                                    24905368.158 7 105382755.21207                        43.000
E01  25057478.759 7 131677942.63207                        44.000    25057482.248 7 106881455.75707                        43.000    25057480.638 7  98330935.83007                        46.000    25057479.342 7 100896085.98707                        47.000    25057479.926 8  99613512.97908                        49.000
E03  27598145.769 6 145029224.13506                        37.000    27598148.892 6 117718543.74606                        38.000    27598149.158 7 108301067.81907                        42.000    27598147.982 7 111126305.27307                        42.000    27598148.349 7 109713688.11807                        45.000
E07  27304050.419 6 143483783.73306                        37.000    27304054.407 6 116464145.82606                        38.000    27304056.533 7 107147024.98907                        42.000    27304054.948 7 109942135.95707                        42.000    27304055.845 7 108544573.05307                        45.000
E08  24189297.446 6 127115625.54806                        40.000    24189302.521 6 103178285.51406                        40.000    24189299.884 7  94924009.90007                        44.000    24189298.420 7  97400287.63407                        45.000    24189298.806 8  96162149.83708                        48.000
E13  23830972.182 7 125232597.15307                        47.000    23830975.512 7 101649849.66507                        47.000    23830973.684 8  93517858.42908                        49.000    23830972.720 8  95957450.07308                        51.000    23830973.200 8  94737656.32108                        53.000
E15  27437952.208 6 144187402.69006                        37.000    27437956.184 6 117035240.54206                        37.000    27437957.560 6 107672423.23006                        41.000    27437956.829 7 110481264.75307                        43.000    27437956.815 7 109076854.06007                        45.000
E21  25379651.552 7 133370963.22807                        42.000    25379655.039 6 108255661.74706                        41.000    25379654.486 7  99595205.80707                        46.000    25379653.582 7 102193335.14807                        47.000    25379653.637 8 100894271.55008                        49.000
E26  23120654.090 7 121499859.78507                        47.000    23120656.633 7  98620026.57507                        46.000    23120656.727 8  90730424.39808                        49.000    23120655.839 8  93097300.30008                        50.000    23120656.135 8  91913863.42008                        52.000
E27  28513561.256 5 149839769.42405                        30.000    28513570.434 5 121623185.19005                        30.000    28513571.497 6 111893357.04906                        36.000    28513569.685 6 114812283.99706                        37.000    28513570.404 6 113352833.59306                        40.000
E31  27890169.932 6 146563829.48106                        37.000    27890171.560 6 118964162.12606                        37.000    27890172.983 6 109447038.98506                        40.000    27890172.437 7 112302172.22307                        43.000    27890172.693 7 110874609.67507                        44.000
E33  28016699.658 6 147228761.04506                        36.000    28016704.765 6 119503891.56206                        37.000    28016703.254 6 109943570.78806                        41.000    28016701.900 7 112811655.97907                        42.000    28016702.369 7 111377617.95707                        44.000
G01  23948432.603 6 125849874.76906                        40.000    23948432.362 4        24.000    23948437.538 4  98064857.83604                        24.000    23948437.813 6  98064863.84706                        39.000    23948434.632 7  93978813.46107                        44.000
G07  24853345.307 6 130605201.42706                        39.000    24853344.807 3        19.000    24853347.005 3 101770292.13303                        19.000    24853346.709 5 101770294.15105                        34.000
G08  20893695.854 8 109797095.62708                        49.000    20893695.251 8        52.000    20893698.004 8  85556188.07808                        52.000    20893698.890 7  85556204.08107                        47.000    20893695.210 8  81991347.68308                        51.000
G10  21134553.867 8 111062823.70608                        50.000    21134553.326 8        52.000    21134555.615 8  86542469.06908                        52.000    21134555.626 7  86542472.07107                        46.000    21134552.270 8  82936528.25908                        51.000
G11  22191024.946 7 116614623.10407                        43.000    22191024.271 4        27.000    22191024.345 4  90868535.98304                        27.000
G16  21929628.765 7 115240966.46407                        44.000    21929627.893 4        29.000    21929628.019 4  89798151.02804                        29.000
G20  22474149.615 6 118102449.34406                        41.000    22474148.350 4        25.000    22474148.693 4  92027885.42804                        25.000
G21  24932965.656 6 131023608.55706                        37.000    24932964.516 2        14.000    24932964.454 2 102096314.58202                        14.000
G22  24878438.089 6 130737097.16306                        38.000    24878437.097 2        17.000    24878440.224 2 101873085.05402                        17.000
G26  24246691.438 6 127417193.24906                        38.000    24246690.853 5        30.000    24246695.987 5  99286152.42105                        30.000    24246696.415 5  99286129.42105                        35.000    24246695.346 7  95149211.15207                        45.000
G27  20305004.765 8 106703513.39208                        50.000    20305004.153 9        54.000    20305006.159 9  83145605.11409                        54.000    20305006.646 8  83145607.12108                        48.000    20305004.340 8  79681196.34108                        53.000
G30  25466120.039 5 133825363.57705                        33.000    25466119.646 1        11.000    25466122.660 1 104279500.67901                        11.000    25466123.782 5 104279508.69705                        31.000    25466122.149 6  99934529.57206                        37.000
G32  24842415.709 6 130547787.76706                        37.000    24842415.428 5        31.000    24842420.652 5 101725571.23505                        31.000    24842421.742 6 101725575.26006                        37.000    24842419.315 7  97487028.83707                        42.000
R01  24053931.328 6 128582050.18406                        37.000    24053941.488 5 100008309.78305                        32.000
R06  23275844.744 6 124204328.65706                        39.000
R07  20864502.354 7 111689268.72807                        47.000    20864507.095 7  86869496.84607                        45.000
R08  21440745.058 7 114814231.03707                        46.000    21440749.929 7  89299991.71407                        43.000
R12  23206048.147 7 123962514.10807                        43.000    23206056.879 6  96415334.57606                        40.000
R13  21118204.731 5 112770010.63005                        35.000    21118208.979 6  87710040.95106                        37.000
R14  22184729.449 7 118257098.32707                        47.000    22184734.565 7  91977763.80607                        44.000
R22  20838186.725 7 111235635.96407                        47.000    20838191.172 7  86516633.40407                        44.000
R23  20245923.303 8 108302008.45408                        51.000    20245928.964 6  84234949.62606                        40.000
R24  22829759.341 7 122080988.04907                        44.000    22829765.668 6  94951908.54006                        40.000
S23  38217597.140 7 200834837.49307                        42.000    38217572.588 7 149973962.44307                        43.000
S25  37560687.994 7 197382759.16807                        44.000
S36  37534842.066 7 197246939.81007                        44.000    37534817.554 7 147294687.32407                        46.000
> 2020 05 19 16 05  8.0000000  0 48
C05                                                                                                                                  39881043.036 6 207671056.20006                        36.000    39881044.582 7 160584437.01907                        42.000    39881048.227 6 168749762.26106                        37.000
C06                                                                                                                                  40657418.547 5 211713866.40605                        34.000    40657418.948 6 163710582.03406                        39.000    40657420.872 6 172034856.03906                        37.000
C09                                                                                                                                  40398781.124 6 210367052.37306                        36.000    40398783.413 6 162669166.82606                        40.000    40398783.520 6 170940481.24106                        36.000
C11                                                                                                                                  25423696.803 6 132387855.77106                        37.000    25423698.862 7 102370685.21907                        43.000    25423699.958 6 107575989.03206                        41.000
C14                                                                                                                                  22757399.556 7 118503751.53607                        46.000    22757399.370 8  91634617.51408                        48.000    22757400.548 7  96294011.51507                        46.000
C16                                                                                                                                  40548858.390 6 211148560.07306                        37.000    40548864.237 6 163273477.62606                        41.000    40548863.076 5 171575518.70605                        35.000
C23  26693251.864 6 140273961.39206                        36.000    26693254.183 6 104750036.07006                        41.000    26693249.235 6 138998740.97306                        36.000                                                                    26693252.019 6 112947830.17706                        39.000
C27  24377902.951 6 128106754.00506                        41.000    24377904.635 7  95664147.28907                        44.000    24377900.921 7 126942138.80607                        43.000                                                                    24377906.963 7 103150906.66607                        42.000
C28  21784419.127 8 114477895.34808                        48.000    21784420.063 8  85486741.78808                        50.000    21784417.327 8 113437183.79808                        51.000                                                                    21784422.877 8  92177022.56608                        50.000
C33  23130702.160 7 121552664.65407                        46.000    23130728.961 7  90769956.86407                        47.000    23130699.658 8 120447631.10008                        48.000                                                                    23130718.036 7  97873639.23607                        46.000
C37  24905782.541 6 130880763.09806                        40.000    24905789.003 7  97735659.39507                        43.000    24905779.946 6 129690934.54606                        41.000                                                                    24905790.099 7 105384540.56507                        43.000
E01  25057496.619 7 131678036.69907                        44.000    25057500.049 7 106881532.11107                        43.000    25057498.538 7  98331006.07607                        46.000    25057497.281 7 100896158.06007                        47.000    25057497.831 8  99613584.13908                        49.000
E03  27598302.769 6 145030049.94106                        38.000    27598306.150 6 117719214.04106                        39.000    27598306.334 7 108301684.48907                        42.000    27598305.125 7 111126938.03307                        42.000    27598305.495 7 109714312.83407                        45.000
E07  27303510.457 6 143480947.02406                        37.000    27303514.605 6 116461843.32506                        39.000    27303516.741 7 107144906.68007                        42.000    27303515.165 7 109939962.39507                        42.000    27303516.044 7 108542427.11507                        45.000
E08  24189013.420 6 127114132.64306                        40.000    24189018.456 6 103177073.74506                        40.000    24189015.754 7  94922895.06207                        44.000    24189014.302 7  97399143.72007                        45.000    24189014.714 8  96161020.46208                        48.000
E13  23831178.817 7 125233682.98607                        46.000    23831182.123 7 101650731.02207                        47.000    23831180.324 8  93518669.27208                        49.000    23831179.351 8  95958282.07008                        51.000    23831179.831 8  94738477.74108                        53.000
E15  27438367.705 6 144189586.77006                        37.000    27438371.860 6 117037013.33306                        37.000    27438373.209 6 107674054.20406                        41.000    27438372.399 7 110482938.26407                        43.000    27438372.434 7 109078506.30207                        45.000
E21  25380140.267 7 133373531.70807                        42.000    25380143.849 6 108257746.54306                        41.000    25380143.283 7  99597123.82307                        46.000    25380142.341 7 102195303.19407                        47.000    25380142.403 8 100896214.58108                        49.000
E26  23120459.029 7 121498835.01207                        47.000    23120461.609 7  98619194.78307                        47.000    23120461.714 8  90729659.14708                        49.000    23120460.818 8  93096515.08808                        50.000    23120461.127 8  91913088.19008                        52.000
E27  28514160.978 5 149842919.25505                        30.000    28514169.865 5 121625741.82205                        31.000    28514170.837 6 111895709.15806                        37.000    28514169.204 6 114814697.49306                        37.000    28514169.735 6 113355216.39706                        40.000
E31  27889741.872 6 146561580.12306                        37.000    27889743.653 6 118962336.35206                        37.000    27889744.992 6 109445359.26506                        40.000    27889744.453 7 112300448.67007                        43.000    27889744.660 7 110872908.03607                        44.000
E33  28016293.558 6 147226625.11906                        36.000    28016298.296 6 119502157.85906                        37.000    28016296.763 6 109941975.79406                        41.000    28016295.466 7 112810019.36707                        42.000    28016295.903 7 111376002.15307                        44.000
G01  23947844.051 6 125846780.64806                        40.000    23947843.806 4        24.000    23947848.759 4  98062446.83504                        24.000    23947848.998 6  98062452.82906                        39.000    23947845.838 7  93976502.91507                        44.000
G07  24853529.167 6 130606168.22406                        39.000    24853528.662 3        19.000    24853530.949 3 101771045.48603                        19.000    24853530.912 5 101771047.48305                        34.000
G08  20893379.667 8 109795433.86408                        49.000    20893379.064 8        52.000    20893381.780 8  85554893.19508                        52.000    20893382.736 7  85554909.20007                        47.000    20893378.985 8  81990106.75708                        51.000
G10  21134661.663 8 111063390.19708                        50.000    21134661.118 8        52.000    21134663.408 8  86542910.49008                        52.000    21134663.391 7  86542913.49807                        46.000    21134660.091 8  82936951.28808                        51.000
G11  22190509.187 7 116611913.01207                        43.000    22190508.512 4        27.000    22190508.643 4  90866424.22504                        27.000
G16  21930201.583 7 115243976.65007                        44.000    21930200.712 4        29.000    21930200.820 4  89800496.62404                        29.000
G20  22474646.789 7 118105061.70007                        42.000    22474645.521 4        25.000    22474645.826 4  92029921.02504                        25.000
G21  24933459.534 6 131026204.70406                        38.000    24933458.399 2        14.000    24933458.506 2 102098337.54202                        14.000
G22  24877728.742 6 130733370.22306                        38.000    24877727.754 2        17.000    24877730.989 2 101870180.94102                        17.000
G26  24247397.943 6 127420905.75306                        38.000    24247397.358 5        30.000    24247402.422 5  99289045.27105                        30.000    24247403.069 5  99289022.27905                        35.000    24247401.864 7  95151983.47207                        45.000
G27  20305069.884 8 106703855.77008                        50.000    20305069.276 9        54.000    20305071.311 9  83145871.90109                        54.000    20305071.752 8  83145873.90208                        48.000    20305069.488 8  79681452.00608                        53.000
G30  25466068.511 5 133825093.39005                        33.000    25466068.131 1        11.000    25466071.250 1 104279290.15501                        11.000    25466072.674 5 104279298.16505                        31.000    25466070.563 6  99934327.81006                        37.000
G32  24841889.749 6 130545024.79406                        37.000    24841889.468 5        31.000    24841894.905 5 101723418.27405                        31.000    24841896.005 6 101723422.30506                        37.000    24841893.503 7  97484965.58507                        42.000
R01  24053098.732 6 128577597.52406                        37.000    24053108.453 5 100004846.61505                        32.000
R06  23276432.445 6 124207466.54006                        39.000
R07  20864478.530 7 111689141.16007                        47.000    20864483.285 7  86869397.63207                        45.000
R08  21440095.350 7 114810752.97407                        46.000    21440100.400 7  89297286.55707                        43.000
R12  23206850.397 7 123966798.78207                        43.000    23206858.714 6  96418667.10306                        41.000
R13  21118609.238 6 112772170.84706                        36.000    21118613.129 6  87711721.10906                        37.000
R14  22184415.553 7 118255425.52207                        47.000    22184420.905 7  91976462.73507                        44.000
R22  20838527.928 8 111237457.29808                        48.000    20838532.390 7  86518050.00707                        44.000
R23  20245655.977 8 108300578.71508                        51.000    20245661.831 6  84233837.59506                        41.000
R24  22829244.572 7 122078235.95107                        44.000    22829251.148 6  94949768.02806                        39.000
S23  38217597.462 7 200834844.87407                        42.000    38217573.961 7 149973967.95507                        43.000
S25  37560664.679 7 197382627.63407                        44.000
S36  37534843.823 7 197246942.23307                        44.000    37534817.970 7 147294689.38607                        46.000
> 2020 05 19 16 05  9.0000000  0 48
C05                                                                                                                                  39881045.685 6 207671069.66606                        36.000    39881047.019 6 160584447.44706                        41.000    39881050.714 6 168749773.20206                        37.000
C06                                                                                                                                  40657248.965 5 211712980.76205                        35.000    40657248.918 6 163709897.22106                        40.000    40657250.760 6 172034136.39506                        37.000
C09                                                                                                                                  40398462.579 6 210365393.15806                        36.000    40398464.906 6 162667883.80606                        40.000    40398464.976 6 170939132.99006                        36.000
C11                                                                                                                                  25424148.260 6 132390207.54506                        37.000    25424150.518 7 102372503.75807                        44.000    25424151.549 6 107577900.03406                        41.000
C14                                                                                                                                  22757331.750 7 118503398.63807                        46.000    22757331.555 8  91634344.63108                        48.000    22757332.787 7  96293724.75307                        46.000
C16                                                                                                                                  40548652.896 6 211147491.06606                        37.000    40548658.964 6 163272651.00906                        41.000    40548657.960 5 171574650.04205                        35.000
C23  26693832.787 6 140277014.54106                        36.000    26693835.125 6 104752316.01406                        41.000    26693830.042 6 139001766.36506                        36.000                                                                    26693832.981 6 112950288.53706                        39.000
C27  24377449.189 6 128104369.16706                        41.000    24377450.867 7  95662366.40407                        44.000    24377447.098 7 126939775.65507                        43.000                                                                    24377453.113 7 103148986.42007                        43.000
C28  21784328.444 8 114477418.90908                        48.000    21784329.403 8  85486386.00608                        50.000    21784326.630 8 113436711.68908                        51.000                                                                    21784332.222 8  92176638.94008                        50.000
C33  23130337.720 7 121550750.31007                        46.000    23130364.680 7  90768527.32007                        47.000    23130335.313 7 120445734.16307                        47.000                                                                    23130353.764 7  97872097.82207                        46.000
C37  24906204.454 6 130882980.29606                        40.000    24906210.912 7  97737315.08907                        43.000    24906201.815 7 129693131.58507                        42.000                                                                    24906212.023 7 105386325.83907                        43.000
E01  25057514.488 7 131678130.86307                        44.000    25057518.007 7 106881608.53607                        43.000    25057516.496 7  98331076.39407                        46.000    25057515.221 7 100896230.20507                        47.000    25057515.748 8  99613655.37008                        49.000
E03  27598459.981 6 145030875.77406                        37.000    27598463.381 6 117719884.37406                        39.000    27598463.476 7 108302301.19407                        42.000    27598462.274 7 111127570.82607                        42.000    27598462.654 7 109714937.58207                        45.000
E07  27302970.500 6 143478109.94506                        37.000    27302974.709 6 116459540.49706                        39.000    27302976.885 7 107142788.08007                        42.000    27302975.300 7 109937788.53007                        42.000    27302976.171 7 108540280.88307                        45.000
E08  24188729.291 6 127112639.70306                        40.000    24188734.447 6 103175861.94706                        40.000    24188731.644 7  94921780.21507                        44.000    24188730.199 7  97397999.78407                        45.000    24188730.614 8  96159891.07008                        48.000
E13  23831385.313 7 125234768.52607                        47.000    23831388.784 7 101651612.14307                        47.000    23831386.911 8  93519479.90708                        49.000    23831385.976 8  95959113.85208                        51.000    23831386.402 8  94739298.95008                        53.000
E15  27438783.433 6 144191770.41306                        37.000    27438787.302 6 117038785.76806                        37.000    27438788.735 6 107675684.84306                        41.000    27438787.938 7 110484611.46307                        43.000    27438787.955 7 109080158.22207                        45.000
E21  25380629.009 7 133376100.05707                        42.000    25380632.708 6 108259831.24506                        41.000    25380632.005 7  99599041.74507                        46.000    25380631.089 7 102197271.15407                        47.000    25380631.134 8 100898157.52208                        49.000
E26  23120263.916 7 121497810.00207                        47.000    23120266.519 7  98618362.79107                        47.000    23120266.645 8  90728893.71508                        49.000    23120265.798 8  93095729.69208                        50.000    23120266.066 8  91912312.77508                        52.000
E27  28514760.300 5 149846068.56405                        30.000    28514769.070 5 121628298.08505                        31.000    28514770.098 6 111898060.90406                        37.000    28514768.473 6 114817110.56706                        37.000    28514768.986 6 113357598.80506                        40.000
E31  27889313.805 6 146559330.65106                        37.000    27889315.727 6 118960510.49806                        37.000    27889316.992 6 109443679.46606                        40.000    27889316.377 7 112298725.05907                        43.000    27889316.601 7 110871206.33107                        44.000
E33  28015886.969 6 147224488.82906                        36.000    28015892.033 6 119500423.88006                        37.000    28015890.197 6 109940380.51606                        41.000    28015889.032 7 112808382.47707                        42.000    28015889.379 7 111374386.07207                        44.000
G01  23947255.202 6 125843686.29906                        40.000    23947254.957 4        24.000    23947259.940 4  98060035.64704                        24.000    23947260.352 6  98060041.65306                        39.000    23947256.975 7  93974192.20407                        44.000
G07  24853713.081 6 130607135.09106                        39.000    24853712.576 3        19.000    24853714.903 3 101771798.87903                        19.000    24853714.871 5 101771800.89605                        34.000
G08  20893063.385 8 109793772.03008                        49.000    20893062.782 8        52.000    20893065.543 8  85553598.25908                        52.000    20893066.593 7  85553614.25807                        47.000    20893062.718 8  81988865.76908                        51.000
G10  21134769.391 8 111063956.90808                        51.000    21134768.846 8        52.000    21134771.250 8  86543352.08208                        52.000    21134771.231 7  86543355.08507                        46.000    21134767.907 8  82937374.48008                        51.000
G11  22189993.512 7 116609202.69207                        43.000    22189992.837 4        27.000    22189992.878 4  90864312.29004                        27.000
G16  21930774.412 7 115246986.81307                        44.000    21930773.541 4        29.000    21930773.640 4  89802842.20304                        29.000
G20  22475143.865 7 118107674.04707                        42.000    22475142.600 4        25.000    22475142.945 4  92031956.61404                        25.000
G21  24933953.783 6 131028800.43306                        38.000    24933952.657 2        14.000    24933952.477 2 102100360.19502                        14.000
G22  24877019.340 6 130729642.94406                        38.000    24877018.352 2        17.000    24877021.727 2 101867276.58302                        17.000
G26  24248104.277 6 127424617.89206                        38.000    24248103.687 5        30.000    24248108.764 5  99291937.85105                        30.000    24248109.316 5  99291914.86405                        35.000    24248108.324 7  95154755.52907                        45.000
G27  20305135.042 8 106704198.15708                        50.000    20305134.430 9        54.000    20305136.467 9  83146138.69509                        54.000    20305136.863 8  83146140.70808                        48.000    20305134.623 8  79681707.69108                        53.000
G30  25466017.305 5 133824823.34605                        33.000    25466016.921 1        11.000    25466019.866 1 104279079.73901                        11.000    25466021.171 5 104279087.71805                        31.000    25466019.080 6  99934126.15106                        36.000
G32  24841364.177 6 130542261.44406                        37.000    24841363.896 5        31.000    24841369.092 5 101721265.01605                        31.000    24841370.011 6 101721269.02706                        37.000    24841367.609 7  97482902.03607                        42.000
R01  24052265.415 6 128573144.32906                        37.000    24052275.142 5 100001383.01905                        32.000
R06  23277020.255 6 124210604.57006                        39.000
R07  20864454.850 7 111689014.09607                        47.000    20864459.436 7  86869298.80507                        45.000
R08  21439446.047 7 114807274.95307                        47.000    21439450.843 7  89294581.43107                        43.000
R12  23207652.386 7 123971083.11207                        43.000    23207660.712 6  96421999.34906                        41.000
R13  21119013.713 5 112774331.37705                        35.000    21119017.704 6  87713401.54506                        37.000
R14  22184101.883 7 118253753.13507                        46.000    22184107.368 7  91975161.99207                        44.000
R22  20838869.088 8 111239278.41608                        48.000    20838873.526 7  86519466.42307                        44.000
R23  20245388.602 8 108299148.80308                        51.000    20245394.509 6  84232725.45506                        40.000
R24  22828729.984 7 122075483.47907                        44.000    22828736.204 6  94947627.20906                        40.000
S23  38217599.452 7 200834851.83407                        42.000    38217575.289 7 149973973.14507                        43.000
S25  37560639.513 7 197382495.66207                        44.000
S36  37534845.218 7 197246944.19107                        44.000    37534818.350 7 147294691.18907                        46.000
> 2020 05 19 16 05 10.0000000  0 48
C05                                                                                                                                  39881048.252 6 207671082.95906                        36.000    39881049.617 6 160584457.71606                        41.000    39881053.307 6 168749784.01006                        37.000
C06                                                                                                                                  40657078.922 5 211712095.11305                        34.000    40657078.797 6 163709212.37306                        40.000    40657080.775 6 172033416.73206                        37.000
C09                                                                                                                                  40398143.965 6 210363733.87306                        36.000    40398146.410 6 162666600.73806                        40.000    40398146.334 6 170937784.68606                        36.000
C11                                                                                                                                  25424599.718 6 132392559.21906                        37.000    25424602.168 7 102374322.23207                        44.000    25424603.163 6 107579810.95906                        41.000
C14                                                                                                                                  22757264.030 7 118503046.12007                        46.000    22757263.812 8  91634072.03808                        48.000    22757265.077 7  96293438.30107                        46.000
C16                                                                                                                                  40548447.595 6 211146422.03906                        37.000    40548453.651 6 163271824.37706                        41.000    40548452.714 5 171573781.38205                        35.000
C23  26694413.585 6 140280067.38406                        36.000    26694415.972 6 104754595.72406                        41.000    26694411.022 6 139004791.44006                        36.000                                                                    26694413.772 6 112952746.67406                        39.000
C27  24376995.401 6 128101984.20906                        41.000    24376997.066 7  95660585.43007                        44.000    24376993.364 7 126937412.37207                        42.000                                                                    24376999.325 7 103147066.05607                        43.000
C28  21784237.806 8 114476942.51708                        48.000    21784238.725 8  85486030.25908                        50.000    21784235.952 8 113436239.62908                        51.000                                                                    21784241.565 8  92176255.35208                        50.000
C33  23129973.475 7 121548836.24207                        46.000    23130000.423 7  90767097.98807                        47.000    23129971.036 7 120443837.49107                        47.000                                                                    23129989.509 7  97870556.62307                        46.000
C37  24906626.341 6 130885197.61106                        39.000    24906632.854 7  97738970.87407                        44.000    24906623.674 6 129695328.73006                        41.000                                                                    24906633.892 7 105388111.20207                        43.000
E01  25057532.440 7 131678225.33107                        44.000    25057536.124 7 106881685.22407                        43.000    25057534.489 7  98331146.94107                        46.000    25057533.218 7 100896302.59307                        47.000    25057533.738 8  99613726.83708                        49.000
E03  27598617.085 6 145031701.88206                        38.000    27598620.524 6 117720554.91006                        38.000    27598620.669 6 108302918.08306                        41.000    27598619.531 7 111128203.80307                        42.000    27598619.868 7 109715562.51507                        45.000
E07  27302430.628 6 143475272.69706                        37.000    27302434.778 6 116457237.53606                        39.000    27302436.923 7 107140669.35307                        42.000    27302435.444 7 109935614.53507                        42.000    27302436.263 7 108538134.52107                        45.000
E08  24188445.356 6 127111146.96706                        40.000    24188450.426 6 103174650.30006                        41.000    24188447.631 7  94920665.50507                        44.000    24188446.125 7  97396855.99107                        45.000    24188446.546 8  96158761.81808                        48.000
E13  23831591.888 7 125235854.00207                        46.000    23831595.283 7 101652493.21007                        47.000    23831593.461 8  93520290.48708                        49.000    23831592.547 8  95959945.57808                        51.000    23831592.964 8  94740120.10308                        53.000
E15  27439199.089 6 144193953.86306                        36.000    27439202.650 6 117040558.07206                        37.000    27439204.241 6 107677315.35106                        41.000    27439203.394 7 110486284.49007                        43.000    27439203.454 7 109081809.99107                        45.000
E21  25381117.770 7 133378668.48607                        42.000    25381121.528 6 108261915.99706                        41.000    25381120.766 7  99600959.72507                        46.000    25381119.836 7 102199239.16707                        47.000    25381119.895 8 100900100.51908                        49.000
E26  23120068.860 7 121496784.94607                        47.000    23120071.514 7  98617530.76407                        47.000    23120071.558 8  90728128.25608                        49.000    23120070.734 8  93094944.25708                        50.000    23120071.005 8  91911537.32808                        52.000
E27  28515359.482 5 149849217.56905                        31.000    28515368.219 5 121630854.08005                        31.000    28515369.238 6 111900412.42706                        37.000    28515367.760 6 114819523.44406                        38.000    28515368.197 6 113359981.01006                        40.000
E31  27888885.759 6 146557081.30006                        37.000    27888887.634 6 118958684.71806                        36.000    27888889.067 6 109441999.75806                        40.000    27888888.267 7 112297001.53007                        43.000    27888888.572 7 110869504.71307                        44.000
E33  28015480.516 6 147222352.43506                        36.000    28015485.546 6 119498689.79006                        37.000    28015483.638 6 109938785.15906                        41.000    28015482.530 7 112806745.49107                        42.000    28015482.828 7 111372769.89907                        44.000
G01  23946666.274 6 125840591.93806                        39.000    23946666.029 4        24.000    23946671.148 4  98057624.45904                        24.000    23946671.300 6  98057630.47206                        39.000    23946668.126 7  93971881.48107                        44.000
G07  24853897.164 6 130608102.25106                        39.000    24853896.664 3        19.000    24853898.919 3 101772552.51203                        19.000    24853899.185 5 101772554.51605                        34.000
G08  20892747.103 8 109792110.30008                        49.000    20892746.500 8        52.000    20892749.327 8  85552303.40608                        52.000    20892750.457 7  85552319.40907                        47.000    20892746.468 8  81987624.86708                        51.000
G10  21134877.281 8 111064524.06508                        51.000    21134876.740 8        52.000    21134879.177 8  86543794.02408                        52.000    21134879.188 7  86543797.03007                        46.000    21134875.836 8  82937798.00808                        51.000
G11  22189477.840 7 116606492.36707                        43.000    22189477.165 4        27.000    22189477.107 4  90862200.34904                        27.000
G16  21931347.406 7 115249997.16007                        44.000    21931346.539 4        29.000    21931346.517 4  89805187.92504                        29.000
G20  22475640.888 6 118110286.60206                        41.000    22475639.623 4        25.000    22475640.095 4  92033992.37504                        25.000
G21  24934447.505 6 131031395.92706                        38.000    24934446.383 2        15.000    24934446.399 2 102102382.64402                        15.000
G22  24876310.365 6 130725915.54706                        38.000    24876309.377 2        17.000    24876312.429 2 101864372.12402                        17.000
G26  24248810.384 6 127428329.90806                        38.000    24248809.799 5        30.000    24248815.097 5  99294830.32405                        30.000    24248815.641 5  99294807.30305                        35.000    24248814.685 7  95157527.47207                        45.000
G27  20305200.270 8 106704540.78208                        50.000    20305199.658 9        54.000    20305201.663 9  83146405.67509                        54.000    20305202.174 8  83146407.68008                        48.000    20305199.818 8  79681963.54308                        53.000
G30  25465965.914 5 133824553.65605                        33.000    25465965.530 1        11.000    25465968.532 1 104278869.58401                        11.000    25465969.789 5 104278877.57705                        31.000    25465967.640 6  99933924.75406                        36.000
G32  24840838.488 6 130539497.90406                        37.000    24840838.211 5        31.000    24840843.278 5 101719111.61105                        31.000    24840844.126 6 101719115.63506                        37.000    24840841.592 7  97480838.36407                        42.000
R01  24051432.054 6 128568690.86406                        37.000    24051441.880 5  99997919.24805                        32.000
R06  23277607.961 6 124213742.95606                        39.000
R07  20864431.234 7 111688887.75607                        47.000    20864435.609 7  86869200.53507                        45.000
R08  21438796.708 7 114803797.23107                        46.000    21438801.414 7  89291876.52807                        42.000
R12  23208454.298 7 123975367.25907                        43.000    23208462.881 6  96425331.45606                        41.000
R13  21119418.234 5 112776492.47505                        35.000    21119422.583 6  87715082.38306                        37.000
R14  22183788.271 7 118252081.35207                        46.000    22183793.740 7  91973861.71807                        44.000
R22  20839210.257 8 111241099.53208                        48.000    20839214.954 7  86520882.84507                        44.000
R23  20245121.235 8 108297718.93608                        51.000    20245127.222 6  84231613.32606                        40.000
R24  22828215.585 7 122072730.88707                        44.000    22828221.511 6  94945486.30306                        39.000
S23  38217600.874 7 200834858.59607                        42.000    38217576.595 7 149973978.22807                        43.000
S25  37560613.783 7 197382363.52607                        44.000
S36  37534845.370 7 197246945.95807                        44.000    37534818.699 7 147294692.86407                        46.000
> 2020 05 19 16 05 11.0000000  0 48
C05                                                                                                                                  39881050.905 6 207671096.17906                        36.000    39881052.018 6 160584467.93306                        41.000    39881055.754 6 168749794.75006                        37.000
C06                                                                                                                                  40656909.217 5 211711209.59105                        34.000    40656908.782 6 163708527.61106                        40.000    40656910.642 6 172032697.15006                        37.000
C09                                                                                                                                  40397825.313 6 210362074.62906                        36.000    40397827.925 6 162665317.71506                        40.000    40397827.743 6 170936436.42406                        36.000
C11                                                                                                                                  25425051.240 6 132394910.94206                        37.000    25425053.886 7 102376140.72207                        43.000    25425054.775 6 107581721.92706                        41.000
C14                                                                                                                                  22757196.388 7 118502694.10807                        46.000    22757196.185 8  91633799.84408                        48.000    22757197.470 7  96293152.26607                        46.000
C16                                                                                                                                  40548242.141 6 211145353.15106                        37.000    40548248.502 6 163270997.84206                        41.000    40548247.447 5 171572912.82305                        35.000
C23  26694994.545 6 140283120.02106                        36.000    26694996.966 6 104756875.29606                        41.000    26694991.765 6 139007816.35706                        36.000                                                                    26694994.586 6 112955204.63706                        39.000
C27  24376541.543 6 128099599.23806                        41.000    24376543.223 7  95658804.44707                        44.000    24376539.680 7 126935049.08607                        42.000                                                                    24376545.530 7 103145145.68707                        43.000
C28  21784147.192 8 114476466.28808                        48.000    21784148.099 8  85485674.62908                        50.000    21784145.336 8 113435767.72808                        51.000                                                                    21784150.921 8  92175871.89208                        50.000
C33  23129609.243 7 121546922.56407                        47.000    23129636.271 7  90765668.94207                        47.000    23129606.872 7 120441941.20907                        47.000                                                                    23129625.325 7  97869015.73907                        46.000
C37  24907048.447 6 130887415.15706                        40.000    24907054.898 7  97740626.83907                        43.000    24907045.713 6 129697526.12306                        41.000                                                                    24907055.887 7 105389896.76007                        43.000
E01  25057550.618 7 131678320.24907                        44.000    25057554.173 7 106881762.25907                        43.000    25057552.508 7  98331217.81607                        46.000    25057551.258 7 100896375.31407                        47.000    25057551.790 8  99613798.63408                        49.000
E03  27598774.375 6 145032528.36806                        38.000    27598777.848 6 117721225.75306                        39.000    27598777.941 6 108303535.26306                        41.000    27598776.783 7 111128837.08707                        42.000    27598777.144 7 109716187.74707                        45.000
E07  27301890.668 6 143472435.39506                        37.000    27301894.929 6 116454934.53106                        39.000    27301896.973 7 107138550.60007                        42.000    27301895.501 7 109933440.49307                        42.000    27301896.342 7 108535988.12407                        45.000
E08  24188161.233 6 127109654.52406                        40.000    24188166.419 6 103173438.90306                        41.000    24188163.640 7  94919551.02307                        44.000    24188162.118 7  97395712.44307                        45.000    24188162.543 8  96157632.80208                        48.000
E13  23831798.486 7 125236939.52107                        46.000    23831801.818 7 101653374.31507                        47.000    23831800.013 8  93521101.10708                        49.000    23831799.094 8  95960777.34308                        51.000    23831799.530 8  94740941.29508                        53.000
E15  27439614.544 6 144196137.24306                        37.000    27439617.893 6 117042330.28306                        37.000    27439619.740 6 107678945.78906                        41.000    27439618.836 7 110487957.46407                        43.000    27439618.944 7 109083461.69507                        45.000
E21  25381606.565 7 133381237.12607                        42.000    25381610.255 6 108264000.93506                        41.000    25381609.581 7  99602877.86607                        46.000    25381608.669 7 102201207.34007                        47.000    25381608.697 8 100902043.67508                        49.000
E26  23119873.763 7 121495759.97807                        47.000    23119876.491 7  98616698.80807                        47.000    23119876.515 8  90727362.85608                        49.000    23119875.669 8  93094158.89308                        50.000    23119875.971 8  91910761.94508                        52.000
E27  28515958.995 5 149852366.39205                        31.000    28515967.061 5 121633409.95005                        31.000    28515968.484 6 111902763.81706                        37.000    28515966.901 6 114821936.17806                        37.000    28515967.417 6 113362363.07006                        40.000
E31  27888457.854 6 146554832.18406                        37.000    27888459.673 6 118956859.11106                        36.000    27888461.112 6 109440320.22306                        40.000    27888460.221 7 112295278.18207                        43.000    27888460.567 7 110867803.27107                        44.000
E33  28015074.118 6 147220216.01006                        36.000    28015079.039 6 119496955.66406                        37.000    28015077.055 6 109937189.77606                        41.000    28015076.025 7 112805108.48707                        42.000    28015076.273 7 111371153.70407                        44.000
G01  23946077.387 6 125837497.71206                        39.000    23946077.137 4        24.000    23946082.348 4  98055213.38704                        24.000    23946082.294 6  98055219.39006                        39.000    23946079.337 7  93969570.85507                        44.000
G07  24854081.265 6 130609069.79506                        39.000    24854080.760 3        19.000    24854082.971 3 101773306.43503                        19.000    24854083.348 5 101773308.45505                        34.000
G08  20892430.917 8 109790448.80908                        49.000    20892430.318 8        52.000    20892433.152 8  85551008.73908                        52.000    20892434.246 7  85551024.73507                        47.000    20892430.329 8  81986384.14608                        51.000
G10  21134985.320 8 111065091.76908                        51.000    21134984.779 8        52.000    21134987.207 8  86544236.39208                        52.000    21134987.170 7  86544239.39907                        46.000    21134983.880 8  82938221.94508                        51.000
G11  22188962.108 7 116603782.14207                        43.000    22188961.433 4        27.000    22188961.350 4  90860088.48804                        27.000
G16  21931920.365 7 115253007.83007                        44.000    21931919.502 4        29.000    21931919.439 4  89807533.90504                        29.000
G20  22476138.011 6 118112899.49006                        41.000    22476136.751 4        25.000    22476137.340 4  92036028.39004                        25.000
G21  24934941.358 6 131033991.30906                        38.000    24934940.232 2        15.000    24934940.263 2 102104405.01302                        15.000
G22  24875601.614 6 130722188.11706                        38.000    24875600.622 2        17.000    24875603.114 2 101861467.65102                        17.000
G26  24249516.588 6 127432041.88306                        38.000    24249516.003 5        30.000    24249521.413 5  99297722.76205                        30.000    24249521.948 5  99297699.75405                        34.000    24249521.079 7  95160299.39507                        45.000
G27  20305265.476 8 106704883.75608                        50.000    20305264.864 9        54.000    20305266.922 9  83146672.92809                        54.000    20305267.376 8  83146674.93208                        48.000    20305265.073 8  79682219.66108                        53.000
G30  25465914.813 5 133824284.45105                        34.000    25465914.442 1        11.000    25465917.292 1 104278659.80901                        11.000    25465918.922 5 104278667.84105                        31.000    25465916.405 6  99933723.73906                        36.000
G32  24840312.281 6 130536734.32806                        37.000    24840312.004 5        31.000    24840317.438 5 101716958.18605                        31.000    24840318.237 6 101716962.22006                        37.000    24840315.597 7  97478774.66707                        42.000
R01  24050598.386 6 128564237.25606                        37.000    24050608.946 5  99994455.33705                        32.000
R06  23278196.167 6 124216881.80006                        39.000
R07  20864407.730 7 111688762.22407                        47.000    20864412.024 7  86869102.90607                        45.000
R08  21438147.358 7 114800319.93007                        46.000    21438151.606 7  89289171.95007                        42.000
R12  23209256.518 7 123979651.39007                        43.000    23209264.523 6  96428663.55606                        41.000
R13  21119822.903 5 112778654.24605                        35.000    21119828.456 6  87716763.75806                        37.000
R14  22183474.888 7 118250410.31507                        46.000    22183480.244 7  91972562.02707                        44.000
R22  20839551.544 8 111242920.77308                        48.000    20839556.068 7  86522299.36307                        45.000
R23  20244853.911 8 108296289.23508                        51.000    20244860.223 6  84230501.34006                        41.000
R24  22827701.014 7 122069978.34507                        44.000    22827706.693 6  94943345.43106                        40.000
S23  38217603.463 7 200834865.29007                        42.000    38217577.919 7 149973983.20707                        43.000
S25  37560588.089 7 197382231.29807                        44.000
S36  37534845.965 7 197246947.63107                        44.000    37534818.976 7 147294694.48607                        46.000
> 2020 05 19 16 05 12.0000000  0 48
C05                                                                                                                                  39881053.380 6 207671109.29706                        36.000    39881054.580 6 160584478.07006                        41.000    39881058.231 6 168749805.40306                        38.000
C06                                                                                                                                  40656739.906 5 211710324.06805                        35.000    40656738.885 6 163707842.89606                        39.000    40656740.668 6 172031977.61906                        38.000
C09                                                                                                                                  40397506.862 6 210360415.37106                        36.000    40397509.197 6 162664034.66806                        40.000    40397509.047 6 170935088.12506                        36.000
C11                                                                                                                                  25425502.845 6 132397262.61006                        37.000    25425505.538 7 102377959.17907                        44.000    25425506.514 6 107583632.84506                        41.000
C14                                                                                                                                  22757128.817 7 118502342.52907                        46.000    22757128.639 8  91633527.98208                        48.000    22757129.986 7  96292866.58707                        47.000
C16                                                                                                                                  40548037.014 6 211144284.31306                        37.000    40548043.244 6 163270171.33406                        41.000    40548042.179 5 171572044.29205                        35.000
C23  26695575.336 6 140286172.42906                        36.000    26695577.833 6 104759154.67906                        41.000    26695572.584 6 139010841.01006                        36.000                                                                    26695575.378 6 112957662.42606                        39.000
C27  24376087.764 6 128097214.19406                        41.000    24376089.364 7  95657023.41207                        44.000    24376085.824 7 126932685.72607                        42.000                                                                    24376091.675 7 103143225.27607                        43.000
C28  21784056.563 8 114475990.16108                        48.000    21784057.453 8  85485319.08208                        50.000    21784054.636 8 113435295.92508                        51.000                                                                    21784060.285 8  92175488.51708                        50.000
C33  23129245.096 7 121545009.21107                        46.000    23129272.205 7  90764240.14407                        47.000    23129242.748 8 120440045.25608                        48.000                                                                    23129261.219 7  97867475.12007                        46.000
C37  24907470.410 6 130889632.88606                        40.000    24907476.882 7  97742282.92807                        43.000    24907467.601 7 129699723.69507                        42.000                                                                    24907477.817 7 105391682.45607                        43.000
E01  25057568.767 7 131678415.52307                        44.000    25057572.302 7 106881839.59207                        43.000    25057570.587 7  98331288.96307                        46.000    25057569.411 7 100896448.32307                        47.000    25057569.913 8  99613870.71308                        49.000
E03  27598931.745 6 145033355.14806                        37.000    27598934.930 6 117721896.84906                        39.000    27598935.255 7 108304152.67007                        42.000    27598934.149 7 111129470.60207                        42.000    27598934.460 7 109716813.20607                        45.000
E07  27301350.865 6 143469597.95606                        37.000    27301355.104 6 116452631.43406                        38.000    27301357.031 7 107136431.74207                        42.000    27301355.546 7 109931266.37507                        42.000    27301356.392 7 108533841.63607                        45.000
E08  24187877.215 6 127108162.34006                        40.000    24187882.608 6 103172227.71506                        41.000    24187879.675 7  94918436.72607                        44.000    24187878.165 7  97394569.07507                        45.000    24187878.587 8  96156503.97108                        48.000
E13  23832004.993 7 125238025.03607                        46.000    23832008.459 7 101654255.41607                        47.000    23832006.565 8  93521911.71708                        49.000    23832005.696 8  95961609.09808                        51.000    23832006.088 8  94741762.47708                        53.000
E15  27440029.824 6 144198320.47906                        37.000    27440033.356 6 117044102.39206                        37.000    27440035.185 6 107680576.12406                        41.000    27440034.283 7 110489630.32807                        43.000    27440034.398 7 109085113.29607                        45.000
E21  25382095.387 7 133383805.90507                        42.000    25382099.250 6 108266085.98806                        41.000    25382098.388 7  99604796.10207                        46.000    25382097.504 7 102203175.62107                        47.000    25382097.508 8 100903986.93508                        49.000
E26  23119678.692 7 121494735.02207                        47.000    23119681.461 7  98615866.86207                        46.000    23119681.472 8  90726597.46308                        49.000    23119680.648 8  93093373.53508                        50.000    23119680.913 8  91909986.57008                        52.000
E27  28516558.332 5 149855515.02405                        31.000    28516566.155 5 121635965.65505                        32.000    28516567.595 6 111905115.07706                        37.000    28516566.143 6 114824348.74306                        38.000    28516566.570 6 113364744.98306                        41.000
E31  27888029.948 6 146552583.25406                        37.000    27888031.777 6 118955033.71306                        36.000    27888033.194 6 109438640.82406                        40.000    27888032.266 7 112293554.97507                        43.000    27888032.592 7 110866101.96907                        45.000
E33  28014667.634 6 147218079.50406                        36.000    28014672.522 6 119495221.49806                        37.000    28014670.530 6 109935594.33906                        41.000    28014669.455 7 112803471.42807                        42.000    28014669.708 7 111369537.45607                        44.000
G01  23945488.628 6 125834403.52106                        39.000    23945488.377 4        24.000    23945493.578 4  98052802.33404                        24.000    23945493.624 6  98052808.32806                        40.000    23945490.482 7  93967260.26407                        44.000
G07  24854265.484 6 130610037.70106                        39.000    24854264.979 3        19.000    24854267.099 3 101774060.64503                        19.000    24854267.092 5 101774062.63705                        34.000
G08  20892114.802 8 109788787.49108                        49.000    20892114.199 8        52.000    20892117.009 8  85549714.20308                        52.000    20892118.079 7  85549730.20107                        47.000    20892114.196 8  81985143.54808                        51.000
G10  21135093.379 8 111065659.97808                        51.000    21135092.834 8        52.000    21135095.331 8  86544679.15408                        52.000    21135095.382 7  86544682.16007                        46.000    21135092.012 8  82938646.25808                        51.000
G11  22188446.512 7 116601071.97707                        43.000    22188445.833 4        27.000    22188445.638 4  90857976.67204                        27.000
G16  21932493.337 7 115256018.75307                        44.000    21932492.470 4        29.000    21932492.402 4  89809880.07404                        29.000
G20  22476635.076 7 118115512.64507                        42.000    22476633.811 4        25.000    22476634.633 4  92038064.61304                        25.000
G21  24935435.014 6 131036586.50006                        38.000    24935433.883 2        15.000    24935434.122 2 102106427.24502                        15.000
G22  24874892.197 6 130718460.62506                        38.000    24874891.200 2        16.000    24874893.807 2 101858563.10702                        16.000
G26  24250223.001 6 127435753.79006                        38.000    24250222.416 5        30.000    24250227.705 5  99300615.15205                        30.000    24250228.551 5  99300592.15205                        34.000    24250227.399 7  95163071.26007                        44.000
G27  20305330.765 8 106705227.02008                        50.000    20305330.153 9        54.000    20305332.243 9  83146940.40509                        54.000    20305332.731 8  83146942.40508                        48.000    20305330.395 8  79682475.99208                        53.000
G30  25465863.706 5 133824015.69105                        34.000    25465863.331 1        11.000    25465866.154 1 104278450.38801                        11.000    25465867.530 5 104278458.38805                        32.000    25465865.199 6  99933523.01706                        36.000
G32  24839786.542 6 130533970.65706                        37.000    24839786.265 5        31.000    24839791.575 5 101714804.68005                        31.000    24839792.338 6 101714808.67606                        37.000    24839789.568 6  97476710.88706                        41.000
R01  24049764.836 6 128559783.40606                        37.000    24049776.043 5  99990991.23305                        32.000
R06  23278784.042 6 124220021.07206                        39.000
R07  20864384.514 7 111688637.48907                        47.000    20864388.880 7  86869005.88507                        45.000
R08  21437497.894 7 114796843.01407                        46.000    21437502.347 7  89286467.70507                        43.000
R12  23210058.447 7 123983935.47007                        43.000    23210066.569 6  96431995.59906                        41.000
R13  21120228.071 5 112780816.64005                        35.000    21120233.726 6  87718445.62006                        37.000
R14  22183161.510 7 118248739.94407                        46.000    22183166.819 7  91971262.84407                        44.000
R22  20839892.807 8 111244742.09908                        48.000    20839897.112 7  86523715.95007                        44.000
R23  20244586.680 8 108294859.64408                        51.000    20244592.845 6  84229389.43806                        41.000
R24  22827186.466 7 122067225.75907                        44.000    22827192.117 6  94941204.53906                        39.000
S23  38217605.158 7 200834871.87007                        42.000    38217579.220 7 149973988.13307                        43.000
S25  37560562.530 7 197382098.99607                        44.000
S36  37534846.819 7 197246949.23707                        44.000    37534819.307 7 147294696.04707                        46.000
> 2020 05 19 16 05 13.0000000  0 48
C05                                                                                                                                  39881055.929 6 207671122.46706                        36.000    39881056.982 6 160584488.26706                        41.000    39881060.855 6 168749816.11606                        37.000
C06                                                                                                                                  40656569.807 5 211709438.81605                        35.000    40656568.860 6 163707158.36306                        39.000    40656570.746 6 172031258.27506                        37.000
C09                                                                                                                                  40397188.395 6 210358756.29706                        36.000    40397190.686 6 162662751.76606                        40.000    40397190.356 6 170933740.01206                        36.000
C11                                                                                                                                  25425954.613 6 132399614.48106                        37.000    25425957.303 7 102379777.78607                        43.000    25425958.174 6 107585543.92406                        41.000
C14                                                                                                                                  22757061.502 7 118501991.59307                        46.000    22757061.218 8  91633256.61908                        48.000    22757062.593 7  96292581.42307                        47.000
C16                                                                                                                                  40547831.961 6 211143215.73706                        37.000    40547838.036 6 163269345.03906                        41.000    40547836.958 5 171571176.00005                        35.000
C23  26696156.079 6 140289224.80806                        36.000    26696158.716 6 104761434.02506                        41.000    26696153.401 6 139013865.61806                        36.000                                                                    26696156.228 6 112960120.15506                        39.000
C27  24375634.031 6 128094829.29006                        41.000    24375635.446 7  95655242.47907                        44.000    24375632.108 7 126930322.49907                        42.000                                                                    24375637.886 7 103141304.95507                        43.000
C28  21783966.059 8 114475514.34608                        48.000    21783966.925 8  85484963.76208                        50.000    21783964.023 8 113434824.43808                        51.000                                                                    21783969.764 8  92175105.39108                        50.000
C33  23128881.101 7 121543096.39807                        46.000    23128908.207 7  90762811.74507                        47.000    23128878.764 8 120438149.83608                        48.000                                                                    23128897.202 7  97865934.93707                        46.000
C37  24907892.480 6 130891850.98506                        40.000    24907898.977 7  97743939.30707                        44.000    24907889.689 7 129701921.63507                        42.000                                                                    24907899.852 7 105393468.46507                        43.000
E01  25057587.087 7 131678511.37307                        44.000    25057590.533 7 106881917.39307                        43.000    25057588.799 7  98331360.53307                        46.000    25057587.598 7 100896521.76407                        47.000    25057588.153 8  99613943.21808                        49.000
E03  27599089.199 6 145034182.47306                        38.000    27599092.359 6 117722568.37206                        39.000    27599092.673 7 108304770.47307                        42.000    27599091.543 7 111130104.52207                        42.000    27599091.896 7 109717439.06907                        45.000
E07  27300811.015 6 143466760.64306                        37.000    27300815.336 6 116450328.41806                        38.000    27300817.061 7 107134312.97007                        42.000    27300815.630 6 109929092.31806                        41.000    27300816.481 7 108531695.22007                        45.000
E08  24187593.365 6 127106670.59206                        40.000    24187598.682 6 103171016.90006                        41.000    24187595.785 7  94917322.76607                        44.000    24187594.301 7  97393426.06207                        45.000    24187594.715 8  96155375.48408                        48.000
E13  23832211.580 7 125239110.73807                        47.000    23832215.038 7 101655136.66307                        47.000    23832213.142 8  93522722.47108                        49.000    23832212.286 8  95962441.00008                        51.000    23832212.686 8  94742583.80608                        53.000
E15  27440445.158 6 144200503.77806                        36.000    27440448.979 6 117045874.54106                        37.000    27440450.659 6 107682206.50806                        41.000    27440449.740 7 110491303.24407                        42.000    27440449.856 7 109086764.94507                        45.000
E21  25382584.299 7 133386375.01507                        42.000    25382588.109 6 108268171.30706                        41.000    25382587.300 7  99606714.59907                        46.000    25382586.408 7 102205144.16807                        47.000    25382586.395 8 100905930.45508                        49.000
E26  23119483.721 7 121493710.29207                        47.000    23119486.387 7  98615035.10807                        47.000    23119486.479 8  90725832.24708                        48.000    23119485.645 8  93092588.35708                        50.000    23119485.916 8  91909211.37308                        52.000
E27  28517157.262 5 149858663.60205                        31.000    28517165.336 5 121638521.32405                        32.000    28517166.798 6 111907466.28206                        37.000    28517165.375 6 114826761.29906                        38.000    28517165.722 6 113367126.86206                        41.000
E31  27887601.975 6 146550334.70506                        37.000    27887603.832 6 118953208.58206                        36.000    27887605.305 6 109436961.70906                        40.000    27887604.401 7 112291832.06207                        43.000    27887604.702 7 110864400.95407                        44.000
E33  28014261.270 6 147215943.11206                        37.000    28014266.037 6 119493487.41706                        37.000    28014263.965 6 109933998.97906                        40.000    28014262.898 7 112801834.45507                        42.000    28014263.148 7 111367921.29107                        44.000
G01  23944899.894 6 125831309.59806                        39.000    23944899.645 4        24.000    23944904.849 4  98050391.48004                        24.000    23944904.770 6  98050397.48906                        39.000    23944901.732 7  93964949.86907                        44.000
G07  24854449.801 6 130611006.12906                        39.000    24854449.296 3        19.000    24854451.406 3 101774815.27003                        19.000    24854451.236 5 101774817.26905                        34.000
G08  20891798.710 8 109787126.56708                        49.000    20891798.107 8        52.000    20891800.945 8  85548419.97608                        52.000    20891801.911 7  85548435.98107                        47.000    20891798.140 8  81983903.25208                        51.000
G10  21135201.641 8 111066228.88408                        50.000    21135201.100 8        52.000    21135203.594 8  86545122.45808                        52.000    21135203.654 7  86545125.46307                        46.000    21135200.261 8  82939071.09008                        51.000
G11  22187930.892 7 116598362.04107                        43.000    22187930.213 4        27.000    22187929.970 4  90855865.03004                        27.000
G16  21933066.457 7 115259030.12907                        44.000    21933065.586 4        29.000    21933065.445 4  89812226.60204                        29.000
G20  22477132.609 7 118118126.26207                        42.000    22477131.344 4        25.000    22477132.003 4  92040101.19804                        25.000
G21  24935928.708 6 131039181.74906                        38.000    24935927.573 2        15.000    24935927.990 2 102108449.52602                        15.000
G22  24874182.887 6 130714733.27206                        38.000    24874181.895 2        16.000    24874184.509 2 101855658.67502                        16.000
G26  24250929.344 6 127439465.79806                        38.000    24250928.759 5        30.000    24250933.989 5  99303507.62405                        30.000    24250934.383 5  99303484.62705                        35.000    24250933.683 7  95165843.19907                        44.000
G27  20305396.223 8 106705570.78708                        50.000    20305395.611 9        54.000    20305397.658 9  83147208.27809                        54.000    20305398.146 8  83147210.27308                        48.000    20305395.827 8  79682732.70308                        53.000
G30  25465812.599 5 133823747.54605                        34.000    25465812.228 1        11.000    25465815.120 1 104278241.42401                        11.000    25465816.376 5 104278249.42305                        32.000    25465814.187 6  99933322.76406                        36.000
G32  24839260.754 6 130531207.06606                        37.000    24839260.477 5        31.000    24839265.721 5 101712651.23705                        31.000    24839265.912 6 101712655.24606                        36.000    24839263.621 6  97474647.17006                        41.000
R01  24048931.534 6 128555329.52806                        37.000    24048942.564 5  99987527.11305                        32.000
R06  23279372.552 6 124223160.96406                        39.000
R07  20864361.216 7 111688513.74107                        47.000    20864365.830 7  86868909.63907                        45.000
R08  21436848.413 7 114793366.64607                        46.000    21436853.299 7  89283763.87907                        43.000
R12  23210860.547 7 123988219.70707                        43.000    23210868.609 6  96435327.79706                        41.000
R13  21120633.045 5 112782979.84105                        35.000    21120638.596 6  87720128.13306                        37.000
R14  22182848.509 7 118247070.44007                        46.000    22182853.673 7  91969964.33007                        44.000
R22  20840234.166 8 111246563.72108                        48.000    20840238.551 7  86525132.76407                        44.000
R23  20244319.490 8 108293430.36308                        51.000    20244325.737 6  84228277.77906                        41.000
R24  22826671.738 7 122064473.29707                        44.000    22826676.992 6  94939063.72006                        39.000
S23  38217606.906 7 200834878.49907                        42.000    38217580.457 7 149973993.08307                        43.000
S25  37560537.663 7 197381966.77607                        44.000
S36  37534846.528 7 197246950.93507                        44.000    37534819.625 7 147294697.67907                        46.000
> 2020 05 19 16 05 14.0000000  0 48
C05                                                                                                                                  39881058.615 6 207671135.99106                        36.000    39881059.580 6 160584498.72706                        41.000    39881063.370 6 168749827.09906                        37.000
C06                                                                                                                                  40656400.337 5 211708554.07605                        35.000    40656398.970 6 163706474.23906                        39.000    40656400.867 6 172030539.36506                        37.000
C09                                                                                                                                  40396869.931 6 210357097.70406                        36.000    40396872.067 6 162661469.23706                        40.000    40396871.900 6 170932392.27606                        36.000
C11                                                                                                                                  25426406.620 6 132401966.77706                        37.000    25426409.103 7 102381596.74307                        44.000    25426409.926 6 107587455.36406                        41.000
C14                                                                                                                                  22756994.414 7 118501641.58607                        46.000    22756993.983 8  91632985.97108                        48.000    22756995.366 7  96292297.01307                        47.000
C16                                                                                                                                  40547626.924 6 211142147.68106                        37.000    40547632.856 6 163268519.17006                        41.000    40547631.789 5 171570308.10205                        35.000
C23  26696737.011 6 140292277.39106                        36.000    26696739.643 6 104763713.56406                        41.000    26696734.320 6 139016890.44906                        36.000                                                                    26696737.249 6 112962578.08106                        39.000
C27  24375180.255 6 128092444.80706                        41.000    24375181.652 7  95653461.84907                        44.000    24375178.327 7 126927959.68807                        42.000                                                                    24375184.158 7 103139384.98107                        43.000
C28  21783875.632 8 114475039.12008                        48.000    21783876.508 8  85484608.89008                        50.000    21783873.620 8 113434353.53608                        51.000                                                                    21783879.302 8  92174722.74608                        50.000
C33  23128517.338 7 121541184.41507                        46.000    23128544.385 7  90761383.96807                        47.000    23128514.985 8 120436255.22908                        48.000                                                                    23128533.351 7  97864395.41307                        46.000
C37  24908314.853 6 130894069.76406                        40.000    24908321.171 7  97745596.17407                        43.000    24908311.897 6 129704120.23306                        41.000                                                                    24908322.068 7 105395255.00707                        43.000
E01  25057605.534 7 131678608.09007                        44.000    25057608.866 7 106881995.89507                        43.000    25057607.218 7  98331432.76207                        46.000    25057605.974 7 100896595.87107                        47.000    25057606.563 8  99614016.38608                        49.000
E03  27599246.775 6 145035010.59606                        38.000    27599249.993 6 117723240.55206                        39.000    27599250.284 6 108305388.87706                        41.000    27599249.132 7 111130739.05707                        42.000    27599249.504 7 109718065.53907                        45.000
E07  27300271.112 6 143463923.70806                        37.000    27300275.487 6 116448025.70506                        38.000    27300277.234 7 107132194.47707                        42.000    27300275.701 7 109926918.55807                        42.000    27300276.621 7 108529549.09407                        45.000
E08  24187309.624 6 127105179.59806                        40.000    24187314.979 6 103169806.66606                        41.000    24187312.067 7  94916209.36307                        44.000    24187310.572 7  97392283.61007                        45.000    24187310.999 8  96154247.55608                        48.000
E13  23832418.292 7 125240196.92407                        46.000    23832421.763 7 101656018.30807                        47.000    23832419.860 8  93523533.58108                        49.000    23832418.965 8  95963273.27008                        51.000    23832419.382 8  94743405.49508                        53.000
E15  27440860.802 6 144202687.42706                        36.000    27440864.597 6 117047646.98406                        37.000    27440866.131 6 107683837.14406                        41.000    27440865.300 7 110492976.42407                        42.000    27440865.382 7 109088416.85307                        45.000
E21  25383073.363 7 133388944.78607                        42.000    25383077.038 6 108270257.15306                        41.000    25383076.292 7  99608633.56807                        46.000    25383075.391 7 102207113.20007                        47.000    25383075.403 8 100907874.45708                        49.000
E26  23119288.882 7 121492686.07307                        47.000    23119291.488 7  98614203.76307                        47.000    23119291.617 8  90725067.41008                        49.000    23119290.715 8  93091803.56608                        50.000    23119291.016 8  91908436.56008                        52.000
E27  28517756.458 5 149861812.49205                        31.000    28517764.236 5 121641077.21605                        32.000    28517766.087 6 111909817.68506                        38.000    28517764.472 6 114829174.04706                        38.000    28517764.955 6 113369508.94006                        41.000
E31  27887174.365 6 146548086.82006                        37.000    27887175.838 6 118951383.99706                        36.000    27887177.571 6 109435283.10406                        40.000    27887176.674 7 112290109.65807                        42.000    27887176.938 7 110862700.45007                        44.000
E33  28013854.982 6 147213807.14406                        37.000    28013859.412 6 119491753.67706                        37.000    28013857.497 6 109932403.94606                        40.000    28013856.415 7 112800197.80507                        42.000    28013856.669 7 111366305.45007                        44.000
G01  23944311.122 6 125828216.20506                        39.000    23944310.872 4        24.000    23944316.213 4  98047981.04404                        24.000    23944315.968 6  98047987.06706                        39.000    23944313.066 7  93962639.87307                        44.000
G07  24854634.393 6 130611975.40606                        39.000    24854633.884 3        19.000    24854635.901 3 101775570.53903                        19.000    24854635.486 5 101775572.55505                        34.000
G08  20891482.692 8 109785466.30508                        49.000    20891482.093 8        52.000    20891485.003 8  85547126.26708                        52.000    20891485.970 7  85547142.26907                        47.000    20891482.203 8  81982663.44608                        51.000
G10  21135310.108 8 111066798.78808                        50.000    21135309.567 8        52.000    21135312.048 8  86545566.53808                        52.000    21135312.072 7  86545569.54707                        46.000    21135308.681 8  82939496.66808                        51.000
G11  22187415.097 7 116595652.68307                        43.000    22187414.418 4        27.000    22187414.383 4  90853753.83704                        27.000
G16  21933639.550 7 115262042.24907                        44.000    21933638.683 4        29.000    21933638.585 4  89814573.70604                        29.000
G20  22477630.089 7 118120740.65007                        42.000    22477628.820 4        25.000    22477629.520 4  92042138.38404                        25.000
G21  24936422.583 6 131041777.30806                        38.000    24936421.448 2        15.000    24936421.930 2 102110472.04102                        15.000
G22  24873473.548 6 130711006.34206                        38.000    24873472.556 2        16.000    24873475.270 2 101852754.57902                        16.000
G26  24251635.600 6 127443178.20706                        38.000    24251635.015 5        30.000    24251640.385 5  99306400.40305                        30.000    24251640.961 5  99306377.41905                        35.000    24251640.096 7  95168615.45307                        44.000
G27  20305461.835 8 106705915.34308                        50.000    20305461.223 9        54.000    20305463.221 9  83147476.76009                        54.000    20305463.799 8  83147478.75908                        48.000    20305461.401 8  79682989.99908                        53.000
G30  25465761.932 5 133823480.31205                        34.000    25465761.575 1        11.000    25465764.259 1 104278033.20101                        11.000    25465765.845 5 104278041.20805                        32.000    25465763.287 6  99933123.20106                        36.000
G32  24838735.050 6 130528443.84706                        37.000    24838734.773 5        31.000    24838739.916 5 101710498.08205                        31.000    24838739.904 6 101710502.10306                        36.000    24838737.714 6  97472583.74306                        41.000
R01  24048098.323 6 128550875.96206                        37.000    24048108.775 5  99984063.21505                        31.000
R06  23279960.921 6 124226301.76806                        39.000
R07  20864338.543 7 111688391.30507                        47.000    20864343.237 7  86868814.41107                        45.000
R08  21436199.235 7 114789891.13107                        46.000    21436204.599 7  89281060.70007                        43.000
R12  23211662.602 7 123992504.38607                        43.000    23211670.919 6  96438660.31506                        41.000
R13  21121038.670 5 112785144.14505                        35.000    21121043.544 6  87721811.46806                        37.000
R14  22182535.538 7 118245402.10707                        46.000    22182540.865 7  91968666.74907                        44.000
R22  20840575.642 8 111248385.93008                        48.000    20840579.868 7  86526550.04207                        45.000
R23  20244052.371 8 108292001.68008                        51.000    20244058.851 6  84227166.59006                        40.000
R24  22826157.243 7 122061721.22907                        43.000    22826162.137 6  94936923.22706                        39.000
S23  38217607.872 7 200834885.49007                        42.000    38217581.737 7 149973998.30307                        43.000
S25  37560512.921 7 197381834.97107                        44.000
S36  37534846.376 7 197246953.02107                        44.000    37534820.130 7 147294699.57907                        46.000
> 2020 05 19 16 05 15.0000000  0 48
C05                                                                                                                                  39881061.280 6 207671148.95806                        36.000    39881061.999 6 160584508.74606                        41.000    39881065.810 6 168749837.62106                        37.000
C06                                                                                                                                  40656230.417 5 211707668.95105                        35.000    40656228.876 6 163705789.78806                        39.000    40656230.893 6 172029820.13406                        37.000
C09                                                                                                                                  40396551.493 6 210355438.60406                        36.000    40396553.479 6 162660186.32906                        40.000    40396553.419 6 170931044.12206                        36.000
C11                                                                                                                                  25426858.310 6 132404318.59406                        37.000    25426860.710 7 102383415.31407                        44.000    25426861.627 6 107589366.41406                        41.000
C14                                                                                                                                  22756927.177 7 118501291.54707                        46.000    22756926.658 8  91632715.29708                        48.000    22756928.149 7  96292012.57607                        47.000
C16                                                                                                                                  40547422.023 6 211141079.22106                        37.000    40547427.586 6 163267692.97306                        41.000    40547426.479 5 171569439.89905                        35.000
C23  26697317.768 6 140295329.26506                        36.000    26697320.422 6 104765992.54306                        41.000    26697315.302 6 139019914.58806                        36.000                                                                    26697318.029 6 112965035.43606                        39.000
C27  24374726.336 6 128090059.76706                        41.000    24374727.786 7  95651680.81907                        44.000    24374724.390 7 126925596.33907                        42.000                                                                    24374730.362 7 103137464.56407                        43.000
C28  21783785.148 8 114474563.51808                        48.000    21783785.974 8  85484253.73408                        50.000    21783783.079 8 113433882.26108                        50.000                                                                    21783788.789 8  92174339.79108                        50.000
C33  23128153.468 7 121539272.27807                        46.000    23128180.536 7  90759956.06807                        47.000    23128151.017 8 120434360.47908                        48.000                                                                    23128169.465 7  97862855.77307                        46.000
C37  24908736.993 6 130896288.23806                        40.000    24908743.319 7  97747252.82007                        43.000    24908733.971 7 129706318.53207                        42.000                                                                    24908744.221 7 105397041.30907                        43.000
E01  25057623.843 7 131678704.68607                        44.000    25057627.264 7 106882074.30907                        43.000    25057625.590 7  98331504.89707                        46.000    25057624.341 7 100896669.89007                        47.000    25057624.941 8  99614089.46408                        49.000
E03  27599404.224 6 145035838.56806                        38.000    27599407.535 6 117723912.59206                        39.000    27599407.811 6 108306007.16206                        41.000    27599406.731 7 111131373.46407                        42.000    27599407.061 7 109718691.88407                        45.000
E07  27299731.158 6 143461086.16606                        37.000    27299735.606 6 116445722.50406                        38.000    27299737.432 7 107130075.54407                        42.000    27299735.743 7 109924744.34807                        42.000    27299736.646 7 108527402.52107                        45.000
E08  24187025.842 6 127103688.37106                        40.000    24187031.385 6 103168596.26106                        40.000    24187028.310 7  94915095.78507                        44.000    24187026.771 7  97391140.97507                        45.000    24187027.230 8  96153119.44808                        48.000
E13  23832624.869 7 125241282.60907                        47.000    23832628.392 7 101656899.54707                        47.000    23832626.434 8  93524344.32108                        49.000    23832625.558 8  95964105.15708                        51.000    23832625.971 8  94744226.80908                        53.000
E15  27441276.173 6 144204870.45706                        37.000    27441280.028 6 117049418.92406                        37.000    27441281.579 6 107685467.33806                        41.000    27441280.751 7 110494649.13607                        42.000    27441280.800 7 109090068.30707                        45.000
E21  25383562.206 7 133391514.18907                        42.000    25383565.848 6 108272342.70706                        41.000    25383565.242 7  99610552.28207                        46.000    25383564.329 7 102209081.96607                        47.000    25383564.348 8 100909818.19608                        49.000
E26  23119093.873 7 121491661.40207                        47.000    23119096.438 7  98613372.04207                        47.000    23119096.629 8  90724302.22708                        49.000    23119095.758 8  93091018.42708                        50.000    23119096.022 8  91907661.39908                        52.000
E27  28518355.242 5 149864960.63205                        31.000    28518363.378 5 121643632.51905                        32.000    28518365.227 6 111912168.56106                        38.000    28518363.698 6 114831586.26306                        39.000    28518364.072 6 113371890.48506                        41.000
E31  27886746.428 6 146545838.63406                        37.000    27886748.027 6 118949559.17806                        37.000    27886749.734 6 109433604.26606                        40.000    27886748.854 7 112288387.02307                        43.000    27886749.111 7 110860999.71407                        45.000
E33  28013448.422 6 147211670.62206                        37.000    28013452.735 6 119490019.48506                        37.000    28013451.070 6 109930808.48406                        40.000    28013449.798 7 112798560.72907                        42.000    28013450.087 7 111364689.17907                        44.000
G01  23943722.042 6 125825122.38506                        39.000    23943721.792 4        24.000    23943727.470 4  98045570.27804                        24.000    23943727.156 6  98045576.29706                        39.000    23943724.317 7  93960329.55707                        44.000
G07  24854818.842 6 130612944.54506                        38.000    24854818.328 3        19.000    24854820.364 3 101776325.70503                        19.000    24854820.462 5 101776327.72105                        34.000
G08  20891166.790 8 109783805.74008                        49.000    20891166.187 8        52.000    20891169.007 8  85545832.32008                        52.000    20891169.985 7  85545848.32107                        47.000    20891166.209 8  81981423.41108                        51.000
G10  21135418.480 8 111067368.71008                        50.000    21135417.939 8        52.000    21135420.503 8  86546010.63408                        52.000    21135420.486 7  86546013.63707                        46.000    21135417.133 8  82939922.25908                        51.000
G11  22186899.392 7 116592942.86407                        43.000    22186898.713 4        27.000    22186898.738 4  90851642.29204                        27.000
G16  21934212.519 7 115265054.13907                        44.000    21934211.652 4        29.000    21934211.718 4  89816920.63404                        29.000
G20  22478127.648 7 118123354.82107                        42.000    22478126.384 4        25.000    22478126.993 4  92044175.39804                        25.000
G21  24936916.470 6 131044372.20906                        38.000    24936915.335 2        15.000    24936915.709 2 102112494.02502                        15.000
G22  24872764.195 6 130707278.85806                        38.000    24872763.203 2        17.000    24872765.901 2 101849850.05802                        17.000
G26  24252342.380 6 127446890.03806                        38.000    24252341.795 5        30.000    24252346.655 5  99309292.73805                        30.000    24252346.870 5  99309269.72905                        34.000    24252346.378 7  95171387.27507                        44.000
G27  20305527.322 8 106706259.70208                        50.000    20305526.714 9        54.000    20305528.753 9  83147745.09109                        54.000    20305529.304 8  83147747.09108                        48.000    20305526.942 8  79683247.15008                        53.000
G30  25465711.194 5 133823213.01005                        34.000    25465710.832 1        11.000    25465713.390 1 104277824.89501                        11.000    25465715.134 5 104277832.91605                        32.000    25465712.422 6  99932923.61806                        36.000
G32  24838208.795 6 130525680.05506                        37.000    24838208.518 5        31.000    24838213.995 5 101708344.48905                        31.000    24838213.931 6 101708348.48706                        36.000    24838211.769 6  97470519.87506                        41.000
R01  24047265.232 6 128546421.65006                        37.000    24047276.116 5  99980598.77205                        31.000
R06  23280549.535 6 124229442.52906                        39.000
R07  20864315.808 7 111688269.11907                        47.000    20864320.398 7  86868719.38207                        45.000
R08  21435550.310 7 114786415.45907                        46.000    21435555.841 7  89278357.39307                        43.000
R12  23212464.618 7 123996788.47307                        43.000    23212472.723 6  96441992.38006                        41.000
R13  21121443.771 5 112787308.58405                        35.000    21121448.993 6  87723494.90706                        37.000
R14  22182222.654 7 118243734.00807                        46.000    22182227.861 7  91967369.33307                        44.000
R22  20840917.053 8 111250207.72008                        48.000    20840921.176 7  86527966.98807                        44.000
R23  20243785.211 8 108290572.61408                        51.000    20243791.915 6  84226055.07906                        40.000
R24  22825642.370 7 122058968.59907                        43.000    22825647.093 6  94934782.30206                        39.000
S23  38217608.923 7 200834891.89807                        42.000    38217582.931 7 149974003.08607                        43.000
S25  37560488.363 7 197381702.58807                        44.000
S36  37534846.274 7 197246954.52107                        44.000    37534820.412 7 147294700.98007                        46.000
> 2020 05 19 16 05 16.0000000  0 48
C05                                                                                                                                  39881064.166 6 207671162.00806                        36.000    39881064.517 6 160584518.82606                        41.000    39881068.350 6 168749848.22006                        37.000
C06                                                                                                                                  40656060.578 5 211706784.08505                        35.000    40656058.999 6 163705105.54906                        39.000    40656061.045 6 172029101.09406                        37.000
C09                                                                                                                                  40396232.698 6 210353779.75306                        36.000    40396234.779 6 162658903.59606                        40.000    40396234.726 5 170929696.17905                        35.000
C11                                                                                                                                  25427309.817 6 132406670.61006                        37.000    25427312.415 7 102385234.02907                        44.000    25427313.361 6 107591277.61006                        40.000
C14                                                                                                                                  22756860.154 7 118500942.16407                        46.000    22756859.532 8  91632445.13608                        48.000    22756861.070 7  96291728.67907                        46.000
C16                                                                                                                                  40547217.012 6 211140011.04506                        37.000    40547222.393 6 163266866.98106                        41.000    40547221.242 5 171568571.90005                        34.000
C23  26697898.514 5 140298381.11805                        35.000    26697901.250 6 104768271.52006                        41.000    26697896.233 6 139022938.68106                        36.000                                                                    26697898.823 6 112967492.75506                        39.000
C27  24374272.574 6 128087674.89206                        41.000    24374273.976 7  95649899.91207                        44.000    24374270.636 7 126923233.14307                        42.000                                                                    24374276.573 7 103135544.27207                        42.000
C28  21783694.699 8 114474088.25108                        48.000    21783695.573 8  85483898.82208                        50.000    21783692.679 8 113433411.31108                        50.000                                                                    21783698.349 8  92173957.10908                        49.000
C33  23127789.793 7 121537360.70507                        46.000    23127816.775 7  90758528.59907                        47.000    23127787.331 7 120432466.27907                        47.000                                                                    23127805.706 7  97861316.58407                        46.000
C37  24909159.389 6 130898507.10906                        40.000    24909165.564 7  97748909.78007                        43.000    24909156.189 7 129708517.23807                        42.000                                                                    24909166.430 7 105398827.94507                        43.000
E01  25057642.379 7 131678801.88407                        44.000    25057645.804 7 106882153.20107                        43.000    25057644.119 7  98331577.47807                        46.000    25057642.843 7 100896744.37207                        46.000    25057643.445 8  99614162.99508                        49.000
E03  27599561.973 6 145036667.09006                        38.000    27599565.055 6 117724585.08006                        38.000    27599565.466 6 108306625.85006                        41.000    27599564.421 7 111132008.30607                        42.000    27599564.713 7 109719318.64907                        45.000
E07  27299191.328 6 143458248.73106                        37.000    27299195.630 6 116443419.42506                        38.000    27299197.551 7 107127956.68907                        42.000    27299195.763 7 109922570.23007                        42.000    27299196.693 7 108525256.03407                        45.000
E08  24186742.109 6 127102197.63206                        40.000    24186747.621 6 103167386.24406                        40.000    24186744.623 7  94913982.56707                        44.000    24186743.068 7  97389998.71907                        45.000    24186743.564 8  96151991.71308                        48.000
E13  23832831.536 7 125242368.52207                        47.000    23832835.048 7 101657780.96907                        47.000    23832833.086 8  93525155.22808                        49.000    23832832.191 8  95964937.22108                        51.000    23832832.623 8  94745048.29508                        53.000
E15  27441691.468 6 144207053.57706                        36.000    27441695.565 6 117051190.93006                        36.000    27441697.014 6 107687097.58506                        41.000    27441696.092 7 110496321.91107                        42.000    27441696.236 7 109091719.81807                        45.000
E21  25384051.357 7 133394083.97607                        42.000    25384054.773 6 108274428.57806                        41.000    25384054.270 7  99612471.28307                        46.000    25384053.304 7 102211051.02307                        46.000    25384053.369 8 100911762.22608                        49.000
E26  23118898.963 7 121490636.97107                        47.000    23118901.525 7  98612540.52707                        46.000    23118901.701 8  90723537.23508                        49.000    23118900.776 8  93090233.47608                        50.000    23118901.090 8  91906886.42708                        52.000
E27  28518954.508 5 149868108.75305                        32.000    28518962.411 5 121646187.83605                        32.000    28518964.421 6 111914519.42706                        38.000    28518962.820 6 114833998.45906                        39.000    28518963.180 6 113374272.01606                        41.000
E31  27886318.718 6 146543590.85506                        37.000    27886320.239 6 118947734.67406                        36.000    27886321.916 6 109431925.72606                        40.000    27886321.129 7 112286664.70307                        43.000    27886321.369 7 110859299.28607                        44.000
E33  28013041.772 6 147209534.24506                        37.000    28013046.265 6 119488285.41906                        36.000    28013044.555 6 109929213.14506                        40.000    28013043.231 7 112796923.77207                        42.000    28013043.558 7 111363073.03307                        44.000
G01  23943133.370 6 125822028.86306                        39.000    23943133.125 4        24.000    23943138.728 4  98043159.74504                        24.000    23943138.476 6  98043165.76806                        39.000    23943135.667 7  93958019.46307                        44.000
G07  24855003.386 6 130613914.25206                        38.000    24855002.868 3        19.000    24855004.908 3 101777081.32203                        19.000    24855004.794 5 101777083.34305                        34.000
G08  20890850.881 8 109782145.56908                        49.000    20890850.282 8        52.000    20890853.082 8  85544538.67808                        52.000    20890854.004 7  85544554.68607                        47.000    20890850.304 8  81980183.67708                        51.000
G10  21135527.042 8 111067939.35408                        50.000    21135526.497 8        52.000    21135529.092 8  86546455.29108                        52.000    21135529.061 7  86546458.29907                        46.000    21135525.705 8  82940348.39008                        51.000
G11  22186383.841 7 116590233.34607                        43.000    22186383.166 4        27.000    22186383.151 4  90849530.97904                        27.000
G16  21934785.854 7 115268066.51107                        44.000    21934784.983 4        29.000    21934784.935 4  89819267.93904                        29.000
G20  22478625.180 7 118125969.49607                        42.000    22478623.916 4        25.000    22478624.550 4  92046212.80504                        25.000
G21  24937410.464 6 131046967.20006                        38.000    24937409.324 2        15.000    24937409.497 2 102114516.07602                        15.000
G22  24872054.998 6 130703551.53206                        38.000    24872053.997 2        16.000    24872056.576 2 101846945.64202                        16.000
G26  24253048.780 6 127450602.02706                        39.000    24253048.195 5        30.000    24253052.975 5  99312185.19205                        30.000    24253053.607 5  99312162.19005                        35.000    24253052.653 7  95174159.21307                        44.000
G27  20305592.903 8 106706604.58908                        50.000    20305592.295 9        54.000    20305594.383 9  83148013.83309                        54.000    20305594.867 8  83148015.83408                        48.000    20305592.576 8  79683504.69508                        53.000
G30  25465660.584 5 133822946.37105                        34.000    25465660.222 2        12.000    25465662.660 2 104277617.13802                        12.000    25465664.489 5 104277625.14805                        32.000    25465661.712 6  99932724.49606                        36.000
G32  24837683.014 6 130522916.38906                        37.000    24837682.737 5        31.000    24837688.127 5 101706190.98705                        31.000    24837688.254 6 101706194.98706                        36.000    24837685.860 6  97468456.10306                        41.000
R01  24046432.136 6 128541967.37206                        37.000    24046442.761 5  99977134.35705                        31.000
R06  23281138.331 6 124232583.96706                        39.000
R07  20864292.977 7 111688147.90307                        47.000    20864297.646 7  86868625.09307                        45.000
R08  21434901.604 7 114782940.35007                        46.000    21434906.872 7  89275654.52007                        43.000
R12  23213266.584 7 124001072.69307                        43.000    23213274.575 6  96445324.54206                        41.000
R13  21121849.536 5 112789473.82405                        35.000    21121853.789 6  87725178.99006                        37.000
R14  22181909.882 7 118242066.83607                        46.000    22181915.140 7  91966072.64407                        44.000
R22  20841258.442 8 111252029.81308                        48.000    20841262.314 7  86529384.16607                        44.000
R23  20243518.177 8 108289143.88108                        51.000    20243524.841 6  84224943.85506                        40.000
R24  22825127.474 7 122056216.18607                        43.000    22825132.328 6  94932641.53906                        40.000
S23  38217609.218 7 200834898.41307                        42.000    38217584.161 7 149974007.96207                        43.000
S25  37560463.434 7 197381570.28507                        44.000
S36  37534846.779 7 197246956.13607                        44.000    37534820.711 7 147294702.41507                        46.000
> 2020 05 19 16 05 17.0000000  0 48
C05                                                                                                                                  39881066.926 6 207671175.22806                        36.000    39881067.106 6 160584529.05406                        41.000    39881070.947 6 168749858.97806                        37.000
C06                                                                                                                                  40655890.573 5 211705899.57705                        35.000    40655889.015 6 163704421.59606                        40.000    40655891.133 6 172028382.35306                        37.000
C09                                                                                                                                  40395913.726 6 210352121.19606                        36.000    40395916.353 6 162657621.07906                        40.000    40395916.228 6 170928348.44006                        36.000
C11                                                                                                                                  25427761.894 6 132409022.90206                        37.000    25427764.192 7 102387052.97207                        44.000    25427765.103 6 107593189.04206                        41.000
C14                                                                                                                                  22756793.160 7 118500593.53607                        46.000    22756792.594 8  91632175.55008                        48.000    22756794.099 7  96291445.38707                        46.000
C16                                                                                                                                  40547012.218 6 211138943.21006                        37.000    40547017.333 6 163266041.28206                        41.000    40547016.151 5 171567704.23605                        35.000
C23  26698479.287 5 140301433.02805                        35.000    26698481.987 6 104770550.54606                        41.000    26698476.748 6 139025962.85706                        36.000                                                                    26698479.674 6 112969950.14806                        39.000
C27  24373818.718 6 128085290.27006                        40.000    24373820.216 7  95648119.18007                        44.000    24373816.672 7 126920870.18907                        42.000                                                                    24373822.794 7 103133624.18307                        43.000
C28  21783604.330 8 114473613.40708                        48.000    21783605.207 8  85483544.23208                        50.000    21783602.298 8 113432940.77908                        50.000                                                                    21783608.004 8  92173574.76608                        50.000
C33  23127426.125 7 121535449.77207                        46.000    23127453.143 7  90757101.60707                        47.000    23127423.725 8 120430572.72408                        48.000                                                                    23127442.065 7  97859777.91507                        46.000
C37  24909581.774 6 130900726.47906                        40.000    24909587.933 7  97750567.10207                        44.000    24909578.542 7 129710716.42907                        42.000                                                                    24909588.790 7 105400614.95507                        43.000
E01  25057660.991 7 131678899.77307                        44.000    25057664.407 7 106882232.65907                        43.000    25057662.773 7  98331650.57707                        46.000    25057661.560 7 100896819.37207                        47.000    25057662.069 8  99614237.04408                        49.000
E03  27599719.724 6 145037496.21806                        38.000    27599722.880 6 117725258.08306                        39.000    27599723.193 6 108307245.01006                        41.000    27599722.236 7 111132643.61507                        42.000    27599722.494 7 109719945.88307                        45.000
E07  27298651.402 6 143455411.52306                        37.000    27298655.740 6 116441116.46606                        38.000    27298657.682 7 107125837.99707                        42.000    27298655.894 7 109920396.26707                        42.000    27298656.799 7 108523109.70607                        45.000
E08  24186458.514 6 127100707.45506                        40.000    24186464.017 6 103166176.68506                        41.000    24186461.038 7  94912869.77207                        44.000    24186459.544 7  97388856.89607                        45.000    24186459.996 8  96150864.40508                        48.000
E13  23833038.275 7 125243454.73707                        47.000    23833041.809 7 101658662.63807                        47.000    23833039.796 8  93525966.36508                        49.000    23833038.905 8  95965769.51708                        51.000    23833039.310 8  94745870.01008                        53.000
E15  27442107.028 6 144209236.85506                        37.000    27442111.095 6 117052963.07906                        37.000    27442112.474 6 107688727.95606                        41.000    27442111.624 7 110497994.82207                        42.000    27442111.691 7 109093371.45907                        45.000
E21  25384540.535 7 133396654.21107                        42.000    25384543.857 6 108276514.81406                        41.000    25384543.357 7  99614390.61607                        46.000    25384542.398 7 102213020.43007                        47.000    25384542.467 8 100913706.59508                        49.000
E26  23118704.079 8 121489612.88908                        48.000    23118706.703 7  98611709.29007                        46.000    23118706.799 8  90722772.49808                        49.000    23118705.926 8  93089448.78808                        50.000    23118706.203 8  91906111.71508                        52.000
E27  28519553.400 5 149871256.96305                        32.000    28519561.861 5 121648743.18705                        32.000    28519563.653 6 111916870.37806                        38.000    28519562.014 6 114836410.72906                        39.000    28519562.279 6 113376653.62506                        41.000
E31  27885890.905 6 146541343.58406                        37.000    27885892.557 6 118945910.57706                        37.000    27885894.273 6 109430247.56706                        40.000    27885893.578 7 112284942.76507                        43.000    27885893.708 7 110857599.23507                        45.000
E33  28012635.157 6 147207398.13106                        37.000    28012639.664 6 119486551.55506                        37.000    28012637.975 6 109927617.98506                        41.000    28012636.653 7 112795286.99607                        42.000    28012637.056 7 111361457.06607                        44.000
G01  23942544.854 6 125818935.70006                        39.000    23942544.609 4        24.000    23942550.115 4  98040749.48504                        24.000    23942549.891 6  98040755.49806                        39.000    23942547.080 7  93955709.63707                        44.000
G07  24855188.140 6 130614884.60806                        39.000    24855187.626 3        19.000    24855189.586 3 101777837.44603                        19.000    24855189.456 5 101777839.46505                        34.000
G08  20890535.064 8 109780485.91108                        49.000    20890534.461 8        52.000    20890537.256 8  85543245.44008                        52.000    20890538.190 7  85543261.44207                        47.000    20890534.487 8  81978944.31908                        51.000
G10  21135635.838 8 111068510.82608                        50.000    21135635.293 8        52.000    21135637.837 8  86546900.59508                        52.000    21135637.886 7  86546903.59807                        46.000    21135634.427 8  82940775.13708                        51.000
G11  22185868.294 7 116587524.17907                        43.000    22185867.615 4        27.000    22185867.635 4  90847419.94304                        27.000
G16  21935359.207 7 115271079.44907                        44.000    21935358.336 4        29.000    21935358.273 4  89821615.67904                        29.000
G20  22479122.949 7 118128584.75107                        42.000    22479121.680 4        25.000    22479122.224 4  92048250.66604                        25.000
G21  24937904.047 6 131049562.32106                        38.000    24937902.907 2        15.000    24937903.339 2 102116538.26002                        15.000
G22  24871345.704 6 130699824.47706                        38.000    24871344.703 2        16.000    24871347.395 2 101844041.46402                        16.000
G26  24253755.247 6 127454314.24406                        38.000    24253754.662 5        30.000    24253759.339 5  99315077.82405                        30.000    24253760.196 5  99315054.82705                        35.000    24253758.939 7  95176931.31007                        44.000
G27  20305658.714 8 106706950.08808                        50.000    20305658.106 9        54.000    20305660.129 9  83148283.05209                        54.000    20305660.684 8  83148285.05808                        48.000    20305658.317 8  79683762.69908                        53.000
G30  25465609.860 5 133822680.45905                        34.000    25465609.489 1        11.000    25465612.072 1 104277409.90501                        11.000    25465613.430 5 104277417.91605                        32.000    25465611.065 6  99932525.93306                        36.000
G32  24837156.821 6 130520152.93306                        37.000    24837156.549 5        31.000    24837162.274 5 101704037.65205                        31.000    24837162.599 6 101704041.65906                        36.000    24837159.896 6  97466392.48906                        41.000
R01  24045598.185 6 128537513.20806                        36.000    24045609.528 5  99973669.96905                        31.000
R06  23281726.934 6 124235726.15706                        39.000
R07  20864270.535 7 111688027.74607                        47.000    20864275.174 7  86868531.64007                        45.000
R08  21434252.948 7 114779465.90207                        46.000    21434257.743 7  89272952.17607                        43.000
R12  23214068.659 7 124005357.18807                        43.000    23214077.082 6  96448656.91706                        41.000
R13  21122254.747 5 112791639.99105                        35.000    21122259.359 6  87726863.80906                        37.000
R14  22181597.472 7 118240400.65607                        46.000    22181602.314 7  91964776.72707                        44.000
R22  20841599.917 8 111253852.29408                        48.000    20841603.644 7  86530801.65807                        45.000
R23  20243251.307 8 108287715.57708                        51.000    20243257.570 6  84223832.95306                        40.000
R24  22824612.741 7 122053464.06707                        43.000    22824617.539 6  94930501.01306                        39.000
S23  38217609.737 7 200834905.11107                        42.000    38217585.493 7 149974012.96407                        43.000
S25  37560439.448 7 197381438.16107                        44.000
S36  37534846.654 7 197246957.93607                        44.000    37534821.047 7 147294703.97407                        46.000
> 2020 05 19 16 05 18.0000000  0 48
C05                                                                                                                                  39881069.407 6 207671188.34606                        36.000    39881069.629 6 160584539.18506                        41.000    39881073.545 6 168749869.63006                        37.000
C06                                                                                                                                  40655720.340 5 211705015.10705                        35.000    40655719.141 6 163703737.66406                        40.000    40655721.240 6 172027663.65806                        37.000
C09                                                                                                                                  40395595.570 6 210350462.59606                        36.000    40395597.886 6 162656338.56406                        40.000    40395597.696 6 170927000.72306                        36.000
C11                                                                                                                                  25428213.698 6 132411375.16206                        37.000    25428215.984 7 102388871.88807                        44.000    25428216.870 6 107595100.43306                        41.000
C14                                                                                                                                  22756726.329 7 118500245.36707                        46.000    22756725.732 8  91631906.32508                        48.000    22756727.250 7  96291162.46507                        47.000
C16                                                                                                                                  40546807.219 6 211137875.46706                        37.000    40546812.530 6 163265215.62706                        41.000    40546811.111 5 171566836.60505                        35.000
C23  26699060.334 5 140304484.70905                        35.000    26699062.712 6 104772829.38006                        41.000    26699057.433 6 139028986.79706                        36.000                                                                    26699060.401 6 112972407.32506                        39.000
C27  24373364.932 6 128082905.58406                        41.000    24373366.421 7  95646338.40807                        44.000    24373362.956 7 126918507.19307                        42.000                                                                    24373369.026 7 103131704.05907                        43.000
C28  21783514.017 8 114473138.67708                        48.000    21783514.860 8  85483189.72608                        50.000    21783512.020 8 113432470.36408                        50.000                                                                    21783517.641 8  92173192.51308                        50.000
C33  23127062.606 7 121533539.19107                        46.000    23127089.564 7  90755674.87507                        47.000    23127060.127 8 120428679.50708                        48.000                                                                    23127078.424 7  97858239.52207                        46.000
C37  24910004.026 6 130902946.03006                        40.000    24910010.274 7  97752224.55607                        44.000    24910000.986 7 129712915.81207                        42.000                                                                    24910011.154 7 105402402.13107                        43.000
E01  25057679.717 7 131678998.04907                        44.000    25057683.150 7 106882312.42707                        43.000    25057681.479 7  98331723.96707                        46.000    25057680.252 7 100896894.67307                        47.000    25057680.774 8  99614311.38808                        49.000
E03  27599877.514 6 145038325.67006                        37.000    27599880.751 6 117725931.35606                        39.000    27599881.045 7 108307864.42507                        42.000    27599880.124 7 111133279.18207                        42.000    27599880.347 7 109720573.37507                        45.000
E07  27298111.515 6 143452574.20606                        37.000    27298115.802 6 116438813.46006                        38.000    27298117.839 7 107123719.22407                        42.000    27298115.977 7 109918222.20907                        42.000    27298116.869 7 108520963.29107                        45.000
E08  24186174.991 6 127099217.51006                        40.000    24186180.477 6 103164967.32606                        41.000    24186177.498 7  94911757.16707                        44.000    24186175.982 7  97387715.25907                        45.000    24186176.459 8  96149737.28208                        48.000
E13  23833244.978 7 125244540.95007                        47.000    23833248.469 7 101659544.30707                        47.000    23833246.518 8  93526777.49808                        49.000    23833245.592 8  95966601.81108                        51.000    23833246.011 8  94746691.72508                        53.000
E15  27442522.609 6 144211420.02006                        37.000    27442526.521 6 117054735.12706                        37.000    27442527.888 6 107690358.24506                        41.000    27442527.098 7 110499667.63407                        42.000    27442527.122 7 109095023.00607                        45.000
E21  25385029.659 7 133399224.62207                        42.000    25385033.040 6 108278601.17406                        41.000    25385032.454 7  99616310.06607                        46.000    25385031.502 7 102214989.94907                        47.000    25385031.595 8 100915651.08108                        49.000
E26  23118509.256 8 121488588.83208                        48.000    23118511.838 7  98610878.07107                        47.000    23118511.940 8  90722007.77908                        49.000    23118511.069 8  93088664.12008                        50.000    23118511.334 8  91905337.02208                        52.000
E27  28520152.574 5 149874404.95105                        32.000    28520160.889 5 121651298.39005                        32.000    28520162.669 6 111919221.15506                        38.000    28520161.136 6 114838822.83306                        39.000    28520161.333 6 113379035.06506                        41.000
E31  27885463.323 6 146539096.49306                        37.000    27885465.013 6 118944086.64906                        36.000    27885466.691 6 109428569.54706                        40.000    27885465.977 7 112283220.96707                        43.000    27885466.091 7 110855899.32807                        45.000
E33  28012228.560 6 147205261.91606                        37.000    28012233.108 6 119484817.61406                        37.000    28012231.447 6 109926022.76306                        41.000    28012230.165 7 112793650.16307                        42.000    28012230.550 7 111359841.03707                        44.000
G01  23941956.516 6 125815842.60106                        39.000    23941956.262 4        24.000    23941961.501 4  98038339.28404                        24.000    23941961.186 6  98038345.29606                        39.000    23941958.455 7  93953399.86107                        44.000
G07  24855373.027 6 130615855.32806                        39.000    24855372.509 3        19.000    24855374.322 3 101778593.85203                        19.000    24855373.620 5 101778595.86605                        34.000
G08  20890219.292 8 109778826.43708                        49.000    20890218.693 8        52.000    20890221.470 8  85541952.34008                        52.000    20890222.457 7  85541968.34607                        47.000    20890218.686 8  81977705.09908                        51.000
G10  21135744.738 8 111069082.79608                        51.000    21135744.193 8        52.000    21135746.677 8  86547346.28608                        52.000    21135746.685 7  86547349.29307                        46.000    21135743.274 8  82941202.26008                        51.000
G11  22185352.709 7 116584815.08207                        43.000    22185352.030 4        27.000    22185352.124 4  90845308.96004                        27.000
G16  21935932.784 7 115274092.64607                        44.000    21935931.917 4        29.000    21935931.679 4  89823963.62404                        29.000
G20  22479620.715 7 118131200.29007                        42.000    22479619.446 4        25.000    22479619.947 4  92050288.75204                        25.000
G21  24938397.597 6 131052157.26706                        38.000    24938396.462 2        15.000    24938397.149 2 102118560.28902                        15.000
G22  24870636.463 6 130696097.34706                        38.000    24870635.453 2        16.000    24870638.155 2 101841137.21502                        16.000
G26  24254461.798 6 127458026.38806                        38.000    24254461.213 5        30.000    24254465.708 5  99317970.39605                        30.000    24254466.453 5  99317947.41405                        34.000    24254465.325 7  95179703.35407                        44.000
G27  20305724.638 8 106707295.88908                        50.000    20305724.026 9        54.000    20305725.934 9  83148552.50709                        54.000    20305726.467 8  83148554.51208                        48.000    20305724.112 8  79684020.92508                        53.000
G30  25465559.242 5 133822414.99005                        34.000    25465558.871 1        11.000    25465561.552 1 104277203.05801                        11.000    25465562.827 5 104277211.07405                        32.000    25465560.746 6  99932327.69506                        36.000
G32  24836631.351 6 130517389.35706                        37.000    24836631.074 5        31.000    24836636.385 5 101701884.22405                        31.000    24836636.605 6 101701888.23606                        36.000    24836633.865 6  97464328.78706                        41.000
R01  24044765.280 6 128533058.85706                        37.000    24044777.123 5  99970205.48005                        31.000
R06  23282315.731 6 124238868.80306                        39.000
R07  20864248.259 7 111687908.36407                        47.000    20864252.816 7  86868438.79707                        45.000
R08  21433604.160 7 114775991.85007                        46.000    21433609.000 7  89270250.14307                        43.000
R12  23214870.743 7 124009641.60707                        43.000    23214879.260 6  96451989.23406                        41.000
R13  21122661.172 5 112793806.80605                        35.000    21122665.317 6  87728549.08906                        37.000
R14  22181285.057 7 118238735.12807                        47.000    22181289.973 7  91963481.32307                        44.000
R22  20841941.340 8 111255674.86708                        48.000    20841945.160 7  86532219.20607                        44.000
R23  20242984.450 8 108286287.40108                        51.000    20242990.341 6  84222722.14206                        40.000
R24  22824098.241 7 122050711.88907                        43.000    22824103.028 6  94928360.43806                        39.000
S23  38217611.825 6 200834911.66806                        41.000    38217586.790 7 149974017.87807                        43.000
S25  37560413.763 7 197381305.95807                        44.000
S36  37534847.633 7 197246959.63107                        44.000    37534821.364 7 147294705.42207                        46.000
> 2020 05 19 16 05 19.0000000  0 48
C05                                                                                                                                  39881071.893 6 207671201.30406                        37.000    39881072.093 6 160584549.17906                        41.000    39881075.970 6 168749880.09906                        37.000
C06                                                                                                                                  40655550.107 5 211704130.69105                        35.000    40655549.118 6 163703053.74706                        39.000    40655551.436 6 172026944.91206                        37.000
C09                                                                                                                                  40395276.884 6 210348804.00406                        36.000    40395279.428 6 162655056.00506                        40.000    40395279.202 6 170925652.87906                        36.000
C11                                                                                                                                  25428665.347 6 132413727.35806                        38.000    25428667.721 7 102390690.73507                        43.000    25428668.557 6 107597011.72506                        41.000
C14                                                                                                                                  22756659.483 7 118499897.61207                        47.000    22756659.028 8  91631637.39208                        48.000    22756660.415 7  96290879.81107                        47.000
C16                                                                                                                                  40546602.130 6 211136807.75206                        38.000    40546607.527 6 163264389.97406                        40.000    40546606.024 5 171565968.90705                        35.000
C23  26699640.985 6 140307536.14906                        36.000    26699643.363 6 104775108.05106                        41.000    26699638.167 6 139032010.47406                        37.000                                                                    26699641.109 6 112974864.22406                        39.000
C27  24372911.274 6 128080520.83206                        41.000    24372912.604 7  95644557.58607                        44.000    24372909.216 7 126916144.09007                        43.000                                                                    24372915.231 7 103129783.75707                        43.000
C28  21783423.647 8 114472664.05208                        49.000    21783424.566 8  85482835.29508                        50.000    21783421.682 8 113432000.03108                        51.000                                                                    21783427.317 8  92172810.24808                        50.000
C33  23126699.157 7 121531628.93707                        47.000    23126726.080 7  90754248.38507                        47.000    23126696.552 8 120426786.59308                        48.000                                                                    23126714.897 7  97856701.29407                        46.000
C37  24910426.339 6 130905165.76106                        40.000    24910432.698 7  97753882.14107                        43.000    24910423.471 7 129715115.34107                        42.000                                                                    24910433.518 7 105404189.34707                        43.000
E01  25057698.477 7 131679096.68807                        45.000    25057701.826 7 106882392.38307                        43.000    25057700.258 7  98331797.62007                        46.000    25057699.015 7 100896970.20807                        46.000    25057699.492 8  99614385.98308                        49.000
E03  27600035.389 6 145039155.45706                        38.000    27600038.655 6 117726604.77006                        39.000    27600038.958 6 108308484.05506                        41.000    27600037.972 7 111133914.94207                        42.000    27600038.208 7 109721201.07007                        45.000
E07  27297571.430 6 143449736.78506                        37.000    27297575.815 6 116436510.24906                        38.000    27297577.859 7 107121600.36307                        42.000    27297575.974 6 109916048.03606                        41.000    27297576.880 7 108518816.77507                        45.000
E08  24185891.483 6 127097727.84706                        40.000    24185896.852 6 103163758.05606                        40.000    24185894.030 7  94910644.74607                        44.000    24185892.476 7  97386573.77707                        45.000    24185892.936 7  96148610.33207                        47.000
E13  23833451.740 7 125245627.15907                        47.000    23833455.139 7 101660425.86207                        47.000    23833453.238 8  93527588.62508                        49.000    23833452.258 8  95967434.05108                        51.000    23833452.676 8  94747513.40708                        53.000
E15  27442937.917 6 144213603.04006                        37.000    27442941.794 6 117056506.94606                        36.000    27442943.264 6 107691988.41906                        41.000    27442942.478 7 110501340.29007                        42.000    27442942.513 7 109096674.42307                        44.000
E21  25385518.821 7 133401795.16907                        42.000    25385522.223 6 108280687.54106                        41.000    25385521.647 7  99618229.62407                        45.000    25385520.653 7 102216959.54007                        46.000    25385520.719 8 100917595.65408                        49.000
E26  23118314.442 8 121487564.79108                        48.000    23118316.963 7  98610046.77307                        46.000    23118317.083 8  90721243.07408                        49.000    23118316.172 8  93087879.42108                        50.000    23118316.425 8  91904562.31908                        52.000
E27  28520751.783 5 149877552.74805                        33.000    28520759.795 5 121653853.31605                        32.000    28520761.637 6 111921571.76306                        38.000    28520760.044 6 114841234.72906                        39.000    28520760.285 6 113381416.31806                        41.000
E31  27885035.568 6 146536849.57906                        37.000    27885037.467 6 118942262.75306                        36.000    27885039.124 6 109426891.66406                        40.000    27885038.355 7 112281499.26407                        42.000    27885038.473 7 110854199.53107                        44.000
E33  28011821.979 6 147203125.62906                        37.000    28011826.562 6 119483083.51606                        37.000    28011824.896 6 109924427.48906                        41.000    28011823.646 7 112792013.22907                        42.000    28011823.986 7 111358224.93307                        44.000
G01  23941367.958 6 125812749.55106                        40.000    23941367.708 4        24.000    23941372.911 4  98035929.12304                        24.000    23941372.794 6  98035935.05606                        39.000    23941369.901 7  93951090.12007                        44.000
G07  24855557.513 6 130616826.39506                        39.000    24855556.995 3        19.000    24855559.134 3 101779350.52903                        19.000    24855558.455 5 101779352.44105                        34.000
G08  20889903.546 8 109777167.15808                        49.000    20889902.943 8        52.000    20889905.724 8  85540659.40008                        52.000    20889906.620 7  85540675.31807                        47.000    20889902.947 8  81976466.02508                        51.000
G10  21135853.666 8 111069655.26508                        51.000    21135853.121 8        52.000    21135855.619 8  86547792.36708                        52.000    21135855.644 7  86547795.29407                        46.000    21135852.201 8  82941629.75008                        51.000
G11  22184837.088 7 116582106.02507                        44.000    22184836.409 4        27.000    22184836.587 4  90843198.01204                        27.000
G16  21936506.156 7 115277106.09307                        45.000    21936505.285 4        29.000    21936505.119 4  89826311.76004                        29.000
G20  22480118.522 7 118133816.09707                        42.000    22480117.253 4        25.000    22480117.746 4  92052327.04604                        25.000
G21  24938891.199 6 131054752.05806                        38.000    24938890.059 2        15.000    24938890.919 2 102120582.19202                        15.000
G22  24869927.294 6 130692370.14106                        39.000    24869926.275 2        16.000    24869928.898 2 101838232.89902                        16.000
G26  24255168.013 6 127461738.43706                        38.000    24255167.423 5        30.000    24255172.032 5  99320862.90305                        30.000    24255172.739 5  99320839.82005                        34.000    24255171.681 7  95182475.33207                        44.000
G27  20305790.464 8 106707641.97608                        50.000    20305789.851 9        54.000    20305791.792 9  83148822.18809                        54.000    20305792.230 8  83148824.10908                        48.000    20305789.961 8  79684279.36408                        53.000
G30  25465508.735 5 133822149.93605                        35.000    25465508.346 1        11.000    25465511.139 1 104276996.55901                        11.000    25465512.111 5 104277004.46405                        32.000    25465510.378 6  99932129.77406                        37.000
G32  24836105.455 6 130514625.67606                        37.000    24836105.178 5        30.000    24836110.459 5 101699730.71205                        30.000    24836110.543 6 101699734.65606                        36.000    24836107.947 6  97462265.00806                        41.000
R01  24043932.548 6 128528604.20906                        36.000    24043943.231 5  99966740.72305                        31.000
R06  23282904.815 6 124242011.87006                        38.000
R07  20864226.083 7 111687789.75507                        47.000    20864230.578 7  86868346.48407                        44.000
R08  21432955.427 7 114772518.13707                        46.000    21432960.352 7  89267548.31507                        43.000
R12  23215672.895 7 124013925.95507                        43.000    23215680.929 6  96455321.43506                        41.000
R13  21123066.665 5 112795974.14805                        35.000    21123071.517 6  87730234.76506                        37.000
R14  22180972.802 7 118237070.22907                        46.000    22180977.599 7  91962186.34407                        43.000
R22  20842282.812 7 111257497.47207                        47.000    20842286.575 7  86533636.73007                        44.000
R23  20242717.526 8 108284859.29608                        51.000    20242723.124 6  84221611.33106                        40.000
R24  22823583.624 7 122047959.58707                        43.000    22823588.672 6  94926219.70006                        39.000
S23  38217613.703 7 200834918.11807                        42.000    38217587.998 7 149974022.68907                        43.000
S25  37560388.302 7 197381173.59207                        44.000
S36  37534847.199 7 197246961.20207                        44.000    37534821.655 7 147294706.77507                        46.000
> 2020 05 19 16 05 20.0000000  0 48
C05                                                                                                                                  39881074.337 6 207671214.18506                        37.000    39881074.301 6 160584559.16106                        41.000    39881078.398 6 168749890.57006                        38.000
C06                                                                                                                                  40655380.165 6 211703246.34906                        37.000    40655379.179 6 163702369.92506                        39.000    40655381.505 6 172026226.31506                        37.000
C09                                                                                                                                  40394958.536 6 210347145.40906                        37.000    40394960.762 6 162653773.47106                        40.000    40394960.646 6 170924305.15806                        36.000
C11                                                                                                                                  25429117.008 6 132416079.61206                        38.000    25429119.258 7 102392509.64307                        43.000    25429120.237 6 107598923.12606                        41.000
C14                                                                                                                                  22756592.794 7 118499550.34107                        47.000    22756592.291 7  91631368.86807                        47.000    22756593.710 7  96290597.64407                        47.000
C16                                                                                                                                  40546397.298 6 211135740.13606                        39.000    40546402.387 6 163263564.44006                        40.000    40546401.064 5 171565101.40205                        35.000
C23  26700221.528 6 140310587.33206                        36.000    26700223.965 6 104777386.53206                        41.000    26700219.050 6 139035033.92406                        37.000                                                                    26700221.734 6 112977321.05106                        39.000
C27  24372457.544 6 128078136.01106                        41.000    24372458.800 7  95642776.72307                        44.000    24372455.447 7 126913780.96007                        44.000                                                                    24372461.388 7 103127863.54307                        43.000
C28  21783333.334 8 114472189.53508                        49.000    21783334.236 8  85482480.95408                        49.000    21783331.485 8 113431529.84008                        52.000                                                                    21783337.009 8  92172428.19608                        50.000
C33  23126335.751 7 121529719.02907                        47.000    23126362.610 7  90752822.15707                        47.000    23126333.148 8 120424894.05408                        49.000                                                                    23126351.442 7  97855163.47307                        47.000
C37  24910848.698 6 130907385.68806                        40.000    24910855.119 7  97755539.87407                        43.000    24910846.013 7 129717315.08807                        43.000                                                                    24910855.928 7 105405976.83407                        43.000
E01  25057717.351 7 131679195.72107                        45.000    25057720.619 7 106882472.79507                        43.000    25057719.063 7  98331871.57507                        46.000    25057717.704 7 100897046.10107                        46.000    25057718.143 8  99614460.90908                        49.000
E03  27600193.470 6 145039985.58206                        38.000    27600196.577 6 117727278.60106                        39.000    27600196.891 6 108309103.94906                        41.000    27600195.791 7 111134551.02307                        42.000    27600195.976 7 109721829.06107                        44.000
E07  27297031.424 6 143446899.24706                        37.000    27297035.771 6 116434207.08606                        38.000    27297037.906 7 107119481.43407                        42.000    27297035.919 6 109913873.84106                        41.000    27297036.725 7 108516670.21407                        45.000
E08  24185608.053 6 127096238.42806                        40.000    24185613.353 6 103162549.15306                        40.000    24185610.610 7  94909532.52207                        44.000    24185608.916 7  97385432.55207                        45.000    24185609.315 7  96147483.60807                        47.000
E13  23833658.388 7 125246713.36207                        47.000    23833661.689 7 101661307.54907                        47.000    23833659.896 8  93528399.75408                        49.000    23833658.817 8  95968266.35308                        50.000    23833659.180 8  94748335.12408                        53.000
E15  27443353.231 6 144215785.93606                        37.000    27443357.026 6 117058278.80206                        37.000    27443358.681 6 107693618.49506                        41.000    27443357.678 7 110503012.89407                        42.000    27443357.712 7 109098325.76507                        44.000
E21  25386007.961 7 133404365.84907                        42.000    25386011.478 6 108282774.17106                        41.000    25386010.831 7  99620149.29707                        46.000    25386009.692 7 102218929.30207                        46.000    25386009.722 8 100919540.37208                        49.000
E26  23118119.585 8 121486540.78708                        48.000    23118122.145 7  98609215.62807                        46.000    23118122.205 8  90720478.40108                        49.000    23118121.167 8  93087094.81208                        50.000    23118121.373 8  91903787.67808                        52.000
E27  28521351.126 5 149880700.34205                        32.000    28521358.945 5 121656408.18605                        32.000    28521360.521 6 111923922.21206                        38.000    28521358.858 6 114843646.49606                        38.000    28521359.049 6 113383797.42806                        41.000
E31  27884607.950 6 146534602.86406                        37.000    27884609.988 6 118940439.15206                        37.000    27884611.544 6 109425213.91606                        40.000    27884610.721 7 112279777.76207                        42.000    27884610.741 7 110852499.91007                        44.000
E33  28011415.249 6 147200989.29206                        37.000    28011419.721 6 119481349.49306                        36.000    28011418.385 6 109922832.17506                        41.000    28011416.946 6 112790376.30706                        41.000    28011417.260 7 111356608.81507                        44.000
G01  23940779.515 6 125809656.58506                        40.000    23940779.261 4        24.000    23940784.333 4  98033518.99204                        24.000    23940784.021 6  98033524.96706                        39.000    23940781.339 7  93948780.43007                        44.000
G07  24855742.295 6 130617797.80706                        39.000    24855741.777 3        19.000    24855744.014 3 101780107.43403                        19.000    24855743.264 5 101780109.41805                        34.000
G08  20889587.832 8 109775508.07008                        49.000    20889587.229 8        52.000    20889590.001 8  85539366.58008                        52.000    20889590.865 7  85539382.55307                        47.000    20889587.205 8  81975227.10508                        51.000
G10  21135962.683 8 111070228.24808                        51.000    21135962.138 8        52.000    21135964.659 8  86548238.82608                        52.000    21135964.692 7  86548241.79307                        46.000    21135961.246 8  82942057.62908                        51.000
G11  22184321.603 7 116579397.03707                        44.000    22184320.919 4        27.000    22184321.040 4  90841087.09104                        27.000
G16  21937079.635 7 115280119.80507                        45.000    21937078.764 4        29.000    21937078.618 4  89828660.07804                        29.000
G20  22480616.355 7 118136432.18607                        42.000    22480615.081 4        25.000    22480615.576 4  92054365.53104                        25.000
G21  24939385.001 6 131057346.68006                        38.000    24939383.866 2        15.000    24939384.613 2 102122603.94502                        15.000
G22  24869218.342 6 130688642.89406                        38.000    24869217.318 2        17.000    24869219.636 2 101835328.52802                        17.000
G26  24255874.334 6 127465450.40806                        38.000    24255873.744 5        30.000    24255878.365 5  99323755.32205                        30.000    24255879.001 5  99323732.29705                        34.000    24255878.011 7  95185247.26007                        44.000
G27  20305856.411 8 106707988.37508                        50.000    20305855.799 9        54.000    20305857.703 9  83149092.08609                        54.000    20305858.082 8  83149094.04808                        48.000    20305855.879 8  79684538.03708                        53.000
G30  25465458.374 5 133821885.33305                        35.000    25465457.990 1        11.000    25465460.779 1 104276790.36201                        11.000    25465461.497 5 104276798.29605                        32.000    25465460.006 6  99931932.18506                        36.000
G32  24835579.240 6 130511861.92406                        37.000    24835578.963 5        30.000    24835584.516 5 101697577.12005                        30.000    24835584.346 6 101697581.09006                        36.000    24835581.893 6  97460201.17306                        41.000
R01  24043098.994 6 128524149.44606                        36.000    24043110.316 5  99963275.92805                        31.000
R06  23283493.535 6 124245155.41106                        38.000
R07  20864204.068 7 111687672.00807                        47.000    20864208.379 7  86868254.91307                        44.000
R08  21432306.447 7 114769044.85307                        45.000    21432311.583 7  89264846.88607                        43.000
R12  23216474.913 7 124018210.22807                        42.000    23216482.890 6  96458653.64906                        41.000
R13  21123472.576 5 112798142.19205                        35.000    21123477.688 6  87731921.02406                        36.000
R14  22180660.744 7 118235406.06607                        46.000    22180665.247 7  91960892.00307                        43.000
R22  20842624.158 7 111259320.21207                        47.000    20842627.943 7  86535054.43007                        44.000
R23  20242450.490 8 108283431.35608                        50.000    20242455.998 6  84220500.72106                        40.000
R24  22823068.738 7 122045207.29807                        42.000    22823073.841 6  94924079.04806                        39.000
S23  38217615.165 7 200834924.44707                        42.000    38217589.250 7 149974027.43007                        43.000
S25  37560361.611 7 197381041.13507                        44.000
S36  37534848.031 7 197246962.69407                        44.000    37534821.918 7 147294708.06307                        46.000
> 2020 05 19 16 05 21.0000000  0 48
C05                                                                                                                                  39881076.722 6 207671227.03506                        37.000    39881076.664 6 160584569.08406                        41.000    39881080.839 6 168749901.01406                        38.000
C06                                                                                                                                  40655210.407 6 211702362.12706                        36.000    40655209.179 6 163701686.19206                        39.000    40655211.632 6 172025507.82706                        37.000
C09                                                                                                                                  40394640.166 6 210345486.86606                        37.000    40394642.205 6 162652491.01206                        40.000    40394642.106 6 170922957.45806                        36.000
C11                                                                                                                                  25429568.524 6 132418431.87106                        38.000    25429570.836 7 102394328.55307                        43.000    25429571.920 6 107600834.53206                        41.000
C14                                                                                                                                  22756526.296 7 118499203.57207                        47.000    22756525.577 7  91631100.72707                        47.000    22756527.084 7  96290315.86507                        47.000
C16                                                                                                                                  40546192.151 6 211134672.63506                        39.000    40546197.148 6 163262738.97406                        40.000    40546196.063 5 171564233.96405                        35.000
C23  26700802.040 6 140313638.35106                        36.000    26700804.538 6 104779664.87806                        41.000    26700799.883 6 139038057.21806                        37.000                                                                    26700802.295 6 112979777.71206                        39.000
C27  24372003.753 6 128075751.19606                        41.000    24372004.949 7  95640995.85907                        44.000    24372001.753 7 126911417.83107                        44.000                                                                    24372007.518 7 103125943.31307                        43.000
C28  21783243.072 8 114471715.20108                        49.000    21783243.960 8  85482126.74108                        50.000    21783241.351 8 113431059.81508                        52.000                                                                    21783246.736 8  92172046.26408                        50.000
C33  23125972.428 7 121527809.52107                        47.000    23125999.238 7  90751396.22407                        47.000    23125969.860 8 120423001.90708                        49.000                                                                    23125988.042 7  97853625.94807                        47.000
C37  24911271.254 6 130909605.85206                        40.000    24911277.602 7  97757197.79107                        43.000    24911268.642 7 129719515.06507                        43.000                                                                    24911278.420 7 105407764.50007                        43.000
E01  25057736.276 7 131679295.18007                        44.000    25057739.517 7 106882553.53107                        43.000    25057737.980 7  98331945.84907                        46.000    25057736.484 7 100897122.31307                        46.000    25057736.951 8  99614536.15208                        49.000
E03  27600351.597 6 145040816.06306                        38.000    27600354.525 6 117727952.68906                        38.000    27600354.909 6 108309724.12306                        41.000    27600353.691 7 111135187.36707                        42.000    27600353.900 7 109722457.31907                        44.000
E07  27296491.475 6 143444061.68606                        38.000    27296495.651 6 116431903.86206                        38.000    27296497.907 7 107117362.47707                        42.000    27296495.762 6 109911699.60606                        41.000    27296496.629 7 108514523.61907                        45.000
E08  24185324.673 6 127094749.33306                        40.000    24185330.073 6 103161340.46306                        41.000    24185327.249 7  94908420.53507                        44.000    24185325.433 7  97384291.55507                        45.000    24185325.831 7  96146357.11607                        47.000
E13  23833865.113 7 125247799.63307                        47.000    23833868.335 7 101662189.25607                        47.000    23833866.585 8  93529210.92108                        49.000    23833865.360 8  95969098.68608                        50.000    23833865.764 8  94749156.87608                        53.000
E15  27443768.514 6 144217968.74406                        37.000    27443772.430 6 117060050.56206                        37.000    27443774.100 6 107695248.51506                        41.000    27443772.924 7 110504685.44507                        42.000    27443772.960 7 109099977.05207                        44.000
E21  25386497.069 7 133406936.74907                        42.000    25386500.854 6 108284860.93606                        41.000    25386500.048 7  99622069.12907                        46.000    25386498.758 7 102220899.22007                        46.000    25386498.837 8 100921485.24908                        49.000
E26  23117924.724 8 121485516.87308                        48.000    23117927.277 7  98608384.53107                        46.000    23117927.338 8  90719713.78908                        49.000    23117926.158 8  93086310.25408                        50.000    23117926.410 8  91903013.09408                        52.000
E27  28521950.071 5 149883847.73805                        33.000    28521957.637 5 121658962.88905                        32.000    28521959.394 6 111926272.54406                        38.000    28521957.609 6 114846058.14106                        38.000    28521957.857 6 113386178.41606                        41.000
E31  27884180.536 6 146532356.38206                        37.000    27884182.480 6 118938615.71306                        36.000    27884183.984 6 109423536.36106                        40.000    27884183.025 7 112278056.43607                        42.000    27884183.120 7 110850800.47107                        44.000
E33  28011008.639 6 147198852.92406                        37.000    28011013.238 6 119479615.44206                        36.000    28011011.922 6 109921236.84606                        40.000    28011010.242 6 112788739.36206                        41.000    28011010.605 7 111354992.67807                        44.000
G01  23940190.854 6 125806563.72106                        40.000    23940190.604 4        24.000    23940195.787 4  98031108.95904                        24.000    23940195.391 6  98031114.95206                        39.000    23940192.733 7  93946470.82907                        44.000
G07  24855927.160 6 130618769.62906                        39.000    24855926.642 3        19.000    24855928.920 3 101780864.69403                        19.000    24855928.520 5 101780866.66705                        34.000
G08  20889272.092 8 109773849.22708                        49.000    20889271.493 8        52.000    20889274.318 8  85538073.95908                        52.000    20889275.153 7  85538089.94607                        47.000    20889271.535 8  81973988.35508                        51.000
G10  21136071.820 8 111070801.79608                        51.000    21136071.275 8        52.000    21136073.794 8  86548685.73208                        52.000    21136073.892 7  86548688.72107                        46.000    21136070.413 8  82942485.93108                        51.000
G11  22183806.119 7 116576688.15707                        44.000    22183805.435 4        27.000    22183805.520 4  90838976.26704                        27.000
G16  21937653.012 7 115283133.82407                        45.000    21937652.141 4        29.000    21937652.167 4  89831008.65004                        29.000
G20  22481114.172 7 118139048.62207                        42.000    22481112.898 4        25.000    22481113.482 4  92056404.29504                        25.000
G21  24939879.013 6 131059941.20606                        38.000    24939877.891 2        15.000    24939878.320 2 102124625.63402                        15.000
G22  24868508.769 6 130684915.65106                        39.000    24868507.750 2        17.000    24868510.369 2 101832424.16302                        17.000
G26  24256580.462 6 127469162.36206                        38.000    24256579.872 5        30.000    24256584.676 5  99326647.73805                        30.000    24256585.391 5  99326624.74405                        34.000    24256584.409 7  95188019.17407                        44.000
G27  20305922.336 8 106708335.12608                        50.000    20305921.728 9        54.000    20305923.682 9  83149362.26709                        54.000    20305923.997 8  83149364.25408                        48.000    20305921.872 8  79684796.98008                        53.000
G30  25465408.054 5 133821621.21905                        35.000    25465407.679 1        11.000    25465410.532 1 104276584.54901                        11.000    25465410.943 5 104276592.51005                        32.000    25465409.780 6  99931734.95306                        36.000
G32  24835053.135 6 130509098.10706                        37.000    24835052.858 5        30.000    24835058.541 5 101695423.49105                        30.000    24835058.415 6 101695427.49906                        36.000    24835055.875 6  97458137.29806                        41.000
R01  24042264.912 6 128519694.52906                        36.000    24042276.424 5  99959811.01005                        31.000
R06  23284082.667 6 124248299.41006                        38.000
R07  20864182.113 7 111687555.08507                        47.000    20864186.649 7  86868163.97807                        44.000
R08  21431657.408 7 114765571.95707                        46.000    21431662.962 7  89262145.75407                        43.000
R12  23217276.688 7 124022494.47207                        43.000    23217285.241 6  96461985.84606                        41.000
R13  21123878.657 5 112800310.91505                        34.000    21123883.611 6  87733607.80806                        36.000
R14  22180348.634 7 118233742.66207                        46.000    22180353.258 7  91959598.25207                        43.000
R22  20842965.408 7 111261143.08707                        47.000    20842969.425 7  86536472.22007                        44.000
R23  20242183.444 8 108282003.58108                        51.000    20242188.818 6  84219390.24006                        40.000
R24  22822553.569 7 122042455.03207                        42.000    22822559.452 6  94921938.39506                        39.000
S23  38217617.303 7 200834930.74407                        42.000    38217590.403 7 149974032.12607                        43.000
S25  37560336.677 7 197380908.64207                        44.000
S36  37534848.805 7 197246964.15307                        44.000    37534822.147 7 147294709.32107                        46.000
> 2020 05 19 16 05 22.0000000  0 48
C05                                                                                                                                  39881078.957 6 207671240.37006                        37.000    39881079.292 6 160584579.39806                        41.000    39881083.241 6 168749911.83706                        37.000
C06                                                                                                                                  40655040.921 6 211701478.57306                        36.000    40655039.397 6 163701002.99706                        39.000    40655041.795 6 172024789.89506                        37.000
C09                                                                                                                                  40394321.861 6 210343828.97006                        37.000    40394323.743 6 162651209.01206                        40.000    40394323.717 6 170921610.29106                        36.000
C11                                                                                                                                  25430020.390 6 132420784.75806                        38.000    25430022.676 7 102396147.95807                        43.000    25430023.696 6 107602746.44506                        41.000
C14                                                                                                                                  22756460.011 7 118498857.89307                        47.000    22756459.003 7  91630833.42707                        47.000    22756460.656 7  96290034.97507                        47.000
C16                                                                                                                                  40545987.203 6 211133605.84306                        38.000    40545992.113 6 163261914.05106                        40.000    40545991.251 5 171563367.10905                        35.000
C23  26701382.608 6 140316689.76606                        36.000    26701385.205 6 104781943.52706                        41.000    26701380.382 6 139041080.88306                        37.000                                                                    26701382.925 6 112982234.68506                        39.000
C27  24371550.103 6 128073366.97306                        41.000    24371551.259 7  95639215.42907                        44.000    24371548.176 7 126909055.28007                        44.000                                                                    24371553.832 7 103124023.54007                        43.000
C28  21783152.910 8 114471241.61608                        49.000    21783153.825 8  85481773.09308                        50.000    21783151.409 8 113430590.53808                        52.000                                                                    21783156.590 8  92171664.93608                        50.000
C33  23125609.237 7 121525900.99507                        47.000    23125636.033 7  90749971.03107                        47.000    23125606.796 8 120421110.73208                        49.000                                                                    23125624.821 7  97852089.21607                        46.000
C37  24911693.910 6 130911826.84006                        40.000    24911700.254 7  97758856.31107                        43.000    24911691.577 7 129721715.86407                        43.000                                                                    24911701.042 7 105409552.83007                        43.000
E01  25057755.403 7 131679395.66707                        44.000    25057758.665 7 106882635.09607                        43.000    25057757.083 7  98332020.89307                        46.000    25057755.503 7 100897199.31607                        46.000    25057756.009 8  99614612.17608                        49.000
E03  27600509.800 6 145041647.53706                        38.000    27600512.662 6 117728627.58406                        38.000    27600513.128 6 108310345.03206                        41.000    27600511.695 7 111135824.46707                        42.000    27600512.062 7 109723086.32407                        44.000
E07  27295951.532 6 143441224.65106                        38.000    27295955.727 6 116429601.08706                        38.000    27295958.038 7 107115243.92807                        42.000    27295955.769 6 109909525.78906                        41.000    27295956.681 7 108512377.43607                        45.000
E08  24185041.578 6 127093261.13306                        40.000    24185046.821 6 103160132.52506                        40.000    24185043.997 7  94907309.22107                        44.000    24185042.101 7  97383151.24807                        45.000    24185042.568 7  96145231.30607                        47.000
E13  23834071.959 7 125248886.53407                        47.000    23834075.181 7 101663071.48707                        47.000    23834073.403 8  93530022.57408                        49.000    23834072.082 8  95969931.51008                        50.000    23834072.523 8  94749979.11508                        53.000
E15  27444183.947 6 144220152.08306                        37.000    27444187.793 6 117061822.74106                        36.000    27444189.485 6 107696878.93606                        41.000    27444188.353 7 110506358.39107                        42.000    27444188.365 7 109101628.73607                        44.000
E21  25386986.465 7 133409508.45207                        42.000    25386990.205 6 108286948.37106                        41.000    25386989.465 7  99623989.55207                        46.000    25386988.027 7 102222869.74307                        46.000    25386988.149 8 100923430.72108                        49.000
E26  23117730.013 8 121484493.63808                        48.000    23117732.491 7  98607553.98107                        46.000    23117732.595 8  90718949.68308                        49.000    23117731.310 8  93085526.21508                        50.000    23117731.628 8  91902239.02308                        52.000
E27  28522549.071 5 149886995.55505                        33.000    28522556.658 5 121661517.92205                        32.000    28522558.371 6 111928623.18206                        38.000    28522556.477 6 114848470.10306                        39.000    28522556.795 6 113388559.71806                        41.000
E31  27883753.223 6 146530110.75106                        37.000    27883755.237 6 118936792.96906                        36.000    27883756.634 6 109421859.42406                        40.000    27883755.595 7 112276335.76207                        42.000    27883755.709 7 110849101.66807                        44.000
E33  28010602.003 6 147196717.15006                        37.000    28010606.655 6 119477881.84806                        36.000    28010605.421 6 109919641.94906                        40.000    28010603.717 7 112787102.85107                        42.000    28010604.118 7 111353376.97707                        44.000
G01  23939602.276 6 125803471.57206                        40.000    23939602.022 4        24.000    23939607.335 4  98028699.49004                        24.000    23939606.672 6  98028705.48106                        39.000    23939604.272 7  93944161.75207                        44.000
G07  24856112.153 6 130619742.44706                        39.000    24856111.639 3        19.000    24856113.987 3 101781622.72403                        19.000    24856113.560 5 101781624.71405                        34.000
G08  20888956.503 8 109772191.20708                        50.000    20888955.900 8        52.000    20888958.801 8  85536781.98908                        52.000    20888959.634 7  85536797.98607                        47.000    20888956.016 8  81972750.22308                        51.000
G10  21136181.036 8 111071376.48508                        51.000    21136180.491 8        52.000    21136183.156 8  86549133.53608                        52.000    21136183.185 7  86549136.53507                        46.000    21136179.750 8  82942915.08608                        51.000
G11  22183290.748 7 116573979.98907                        44.000    22183290.064 4        27.000    22183290.182 4  90836866.00004                        27.000
G16  21938226.701 7 115286148.76307                        45.000    21938225.830 4        29.000    21938225.880 4  89833357.94404                        29.000
G20  22481612.192 7 118141665.97007                        42.000    22481610.918 4        25.000    22481611.545 4  92058443.78304                        25.000
G21  24940373.026 6 131062536.23506                        38.000    24940371.909 2        15.000    24940372.139 2 102126647.72402                        15.000
G22  24867799.476 6 130681188.98406                        39.000    24867798.457 2        16.000    24867801.201 2 101829520.26802                        16.000
G26  24257286.874 6 127472874.89906                        38.000    24257286.284 5        30.000    24257291.112 5  99329540.60305                        30.000    24257292.030 5  99329517.57405                        35.000    24257290.939 7  95190791.50907                        44.000
G27  20305988.399 8 106708682.83408                        50.000    20305987.787 9        54.000    20305989.843 9  83149633.20009                        54.000    20305990.126 8  83149635.20008                        48.000    20305988.026 8  79685056.63508                        53.000
G30  25465358.140 5 133821358.17205                        35.000    25465357.778 1        11.000    25465360.476 1 104276379.58501                        11.000    25465361.196 5 104276387.54805                        33.000    25465359.725 6  99931538.53706                        36.000
G32  24834527.237 6 130506334.85106                        37.000    24834526.960 5        30.000    24834532.710 5 101693270.30205                        30.000    24834532.585 6 101693274.29906                        36.000    24834530.005 6  97456073.83106                        41.000
R01  24041431.623 6 128515240.03706                        36.000    24041443.769 5  99956346.40505                        31.000
R06  23284671.730 6 124251444.49806                        38.000
R07  20864160.337 7 111687439.57007                        47.000    20864165.167 7  86868074.13407                        44.000
R08  21431008.860 7 114762100.05507                        46.000    21431014.736 7  89259445.39607                        43.000
R12  23218078.640 7 124026779.33107                        42.000    23218087.300 6  96465318.50906                        41.000
R13  21124285.479 5 112802480.88705                        34.000    21124289.818 6  87735295.56306                        36.000
R14  22180036.834 7 118232080.62107                        46.000    22180041.386 7  91958305.54507                        43.000
R22  20843306.759 7 111262966.70607                        47.000    20843311.019 7  86537890.59007                        44.000
R23  20241916.471 8 108280576.57608                        50.000    20241922.072 6  84218280.34206                        40.000
R24  22822038.874 7 122039703.37807                        42.000    22822044.849 6  94919798.21806                        39.000
S23  38217617.759 7 200834937.50307                        42.000    38217591.646 7 149974037.19907                        43.000
S25  37560312.445 7 197380776.64607                        44.000
S36  37534848.331 7 197246966.10207                        44.000    37534822.482 7 147294710.87707                        46.000
> 2020 05 19 16 05 23.0000000  0 48
C05                                                                                                                                  39881081.523 6 207671253.85406                        37.000    39881081.948 6 160584589.83906                        41.000    39881085.701 6 168749922.81606                        37.000
C06                                                                                                                                  40654871.621 6 211700595.37906                        36.000    40654869.756 6 163700320.03906                        39.000    40654872.150 6 172024072.19806                        37.000
C09                                                                                                                                  40394003.944 6 210342171.33706                        37.000    40394005.406 6 162649927.22106                        40.000    40394005.431 6 170920263.32206                        36.000
C11                                                                                                                                  25430472.228 6 132423137.89806                        38.000    25430474.345 7 102397967.52707                        43.000    25430475.486 6 107604658.54906                        41.000
C14                                                                                                                                  22756393.838 7 118498512.92907                        47.000    22756392.668 7  91630566.67907                        47.000    22756394.392 7  96289754.66407                        47.000
C16                                                                                                                                  40545782.548 6 211132539.36006                        38.000    40545787.100 6 163261089.39806                        40.000    40545786.532 5 171562500.50205                        35.000
C23  26701963.147 6 140319741.22606                        36.000    26701965.825 6 104784222.20106                        41.000    26701961.094 6 139044104.59506                        37.000                                                                    26701963.612 6 112984691.69706                        39.000
C27  24371096.440 6 128070982.94306                        41.000    24371097.518 7  95637435.14507                        44.000    24371094.642 7 126906692.92007                        44.000                                                                    24371100.195 7 103122103.93907                        43.000
C28  21783062.848 8 114470768.41408                        49.000    21783063.774 8  85481419.72408                        50.000    21783061.494 8 113430121.63408                        52.000                                                                    21783066.549 8  92171283.91808                        50.000
C33  23125246.098 7 121523993.08407                        47.000    23125272.932 7  90748546.29007                        47.000    23125243.792 8 120419220.16708                        49.000                                                                    23125261.747 7  97850552.97907                        47.000
C37  24912116.533 6 130914048.28506                        40.000    24912122.960 7  97760515.19107                        43.000    24912114.365 7 129723917.11607                        43.000                                                                    24912123.822 7 105411341.51807                        43.000
E01  25057774.584 7 131679496.80407                        44.000    25057777.876 7 106882717.18707                        43.000    25057776.309 7  98332096.41507                        46.000    25057774.679 7 100897276.80407                        46.000    25057775.228 8  99614688.68108                        49.000
E03  27600668.132 6 145042479.58906                        38.000    27600670.956 6 117729302.97106                        38.000    27600671.512 6 108310966.37406                        41.000    27600669.958 7 111136462.02907                        42.000    27600670.371 7 109723715.77707                        44.000
E07  27295411.737 6 143438387.77606                        38.000    27295415.710 6 116427298.45506                        38.000    27295418.137 7 107113125.48807                        42.000    27295415.794 6 109907352.09606                        41.000    27295416.795 7 108510231.36907                        45.000
E08  24184758.551 6 127091773.45906                        40.000    24184763.710 6 103158924.99506                        40.000    24184760.898 7  94906198.30007                        44.000    24184758.906 7  97382011.35007                        45.000    24184759.442 8  96144105.89808                        48.000
E13  23834278.826 7 125249973.70607                        47.000    23834282.017 7 101663953.93607                        47.000    23834280.256 8  93530834.42808                        49.000    23834278.856 8  95970764.53908                        50.000    23834279.372 8  94750801.55708                        53.000
E15  27444599.361 6 144222335.54906                        37.000    27444603.170 6 117063595.04306                        36.000    27444604.981 6 107698509.43606                        41.000    27444603.759 7 110508031.43507                        42.000    27444603.828 7 109103280.50907                        44.000
E21  25387475.879 7 133412080.57607                        42.000    25387479.669 6 108289036.11906                        41.000    25387478.908 7  99625910.28507                        46.000    25387477.451 7 102224840.58307                        46.000    25387477.577 8 100925376.50808                        49.000
E26  23117535.337 8 121483470.69708                        48.000    23117537.837 7  98606723.67807                        46.000    23117537.947 8  90718185.80408                        49.000    23117536.533 8  93084742.40408                        50.000    23117536.941 8  91901465.17808                        52.000
E27  28523147.691 5 149890143.44105                        33.000    28523155.806 5 121664073.01905                        32.000    28523157.355 6 111930973.87106                        38.000    28523155.366 6 114850882.09706                        39.000    28523155.756 6 113390941.06006                        41.000
E31  27883326.007 6 146527865.55706                        37.000    27883327.960 6 118934970.56906                        37.000    27883329.380 6 109420182.82206                        40.000    27883328.309 7 112274615.42507                        42.000    27883328.427 7 110847403.19907                        44.000
E33  28010195.508 6 147194581.57406                        37.000    28010200.131 6 119476148.43706                        36.000    28010199.051 6 109918047.19306                        40.000    28010197.255 7 112785466.50007                        42.000    28010197.692 7 111351761.42207                        44.000
G01  23939013.938 6 125800379.74706                        40.000    23939013.688 4        24.000    23939018.937 4  98026290.27404                        24.000    23939018.317 6  98026296.26906                        39.000    23939015.933 7  93941852.93507                        44.000
G07  24856297.537 6 130620715.88806                        39.000    24856297.028 3        19.000    24856299.237 3 101782381.24603                        19.000    24856298.957 5 101782383.22805                        34.000
G08  20888641.075 8 109770533.62408                        50.000    20888640.472 8        52.000    20888643.367 8  85535490.36308                        52.000    20888644.187 7  85535506.36607                        47.000    20888640.584 8  81971512.42308                        51.000
G10  21136290.480 8 111071951.96308                        51.000    21136289.935 8        52.000    21136292.662 8  86549581.95608                        52.000    21136292.747 7  86549584.95407                        46.000    21136289.252 8  82943344.82508                        51.000
G11  22182775.612 7 116571272.14107                        43.000    22182774.928 4        27.000    22182774.909 4  90834755.98104                        27.000
G16  21938800.478 7 115289164.21907                        45.000    21938799.602 4        29.000    21938799.697 4  89835707.64604                        29.000
G20  22482110.363 7 118144283.85707                        42.000    22482109.085 4        25.000    22482109.679 4  92060483.68604                        25.000
G21  24940867.192 6 131065131.33406                        38.000    24940866.078 2        15.000    24940866.026 2 102128669.88002                        15.000
G22  24867090.391 6 130677462.52306                        39.000    24867089.372 2        17.000    24867092.051 2 101826616.52702                        17.000
G26  24257993.291 6 127476587.60406                        38.000    24257992.706 5        30.000    24257997.561 5  99332433.60905                        30.000    24257998.401 5  99332410.60105                        35.000    24257997.426 7  95193563.97307                        44.000
G27  20306054.630 8 106709031.10708                        50.000    20306054.013 9        54.000    20306056.109 9  83149904.57709                        54.000    20306056.312 8  83149906.57408                        48.000    20306054.293 8  79685316.70808                        53.000
G30  25465308.285 6 133821095.84106                        36.000    25465307.919 2        12.000    25465310.555 2 104276175.14902                        12.000    25465311.698 5 104276183.11105                        32.000    25465309.725 6  99931342.62906                        36.000
G32  24834001.362 6 130503571.76206                        37.000    24834001.090 5        30.000    24834006.874 5 101691117.24205                        30.000    24834007.193 6 101691121.24606                        36.000    24834004.165 6  97454010.49206                        41.000
R01  24040598.176 6 128510785.62406                        36.000    24040610.454 5  99952881.86005                        31.000
R06  23285261.356 6 124254590.31906                        39.000
R07  20864138.707 7 111687325.07607                        47.000    20864144.048 7  86867985.08007                        44.000
R08  21430360.325 7 114758628.78507                        46.000    21430366.489 7  89256745.51707                        43.000
R12  23218880.999 7 124031064.40407                        42.000    23218889.256 6  96468651.33406                        40.000
R13  21124692.233 5 112804651.79005                        35.000    21124696.467 6  87736984.01606                        36.000
R14  22179725.062 7 118230419.54507                        46.000    22179730.003 7  91957013.59707                        43.000
R22  20843648.107 7 111264790.67007                        47.000    20843652.819 7  86539309.22807                        44.000
R23  20241649.591 8 108279149.94308                        50.000    20241655.778 6  84217170.73906                        40.000
R24  22821524.276 7 122036951.93507                        42.000    22821530.134 6  94917658.21106                        39.000
S23  38217619.565 7 200834944.46707                        42.000    38217592.970 7 149974042.38407                        43.000
S25  37560287.404 7 197380644.82807                        44.000
S36  37534848.872 7 197246968.21007                        44.000    37534822.849 7 147294712.52807                        46.000
> 2020 05 19 16 05 24.0000000  0 48
C05                                                                                                                                  39881084.112 6 207671267.68406                        37.000    39881084.533 6 160584600.52206                        41.000    39881088.315 6 168749934.05006                        38.000
C06                                                                                                                                  40654702.102 6 211699712.66506                        36.000    40654700.206 6 163699637.46406                        39.000    40654702.634 6 172023354.92406                        38.000
C09                                                                                                                                  40393685.904 6 210340514.15206                        37.000    40393687.064 6 162648645.78306                        40.000    40393687.208 6 170918916.70906                        36.000
C11                                                                                                                                  25430924.251 6 132425491.43406                        38.000    25430926.198 7 102399787.43907                        43.000    25430927.454 6 107606570.99406                        41.000
C14                                                                                                                                  22756327.866 7 118498168.87107                        47.000    22756326.573 8  91630300.63008                        48.000    22756328.307 7  96289475.08707                        47.000
C16                                                                                                                                  40545577.839 6 211131473.41106                        38.000    40545582.094 6 163260265.13206                        40.000    40545581.854 5 171561634.34505                        35.000
C23  26702543.669 6 140322792.87306                        36.000    26702546.597 6 104786501.02906                        41.000    26702541.817 6 139047128.52306                        37.000                                                                    26702544.328 6 112987148.87206                        39.000
C27  24370642.773 6 128068599.31106                        41.000    24370643.983 7  95635655.16907                        44.000    24370641.168 7 126904330.96607                        44.000                                                                    24370646.554 7 103120184.65107                        43.000
C28  21782972.945 8 114470295.78108                        49.000    21782973.855 8  85481066.78508                        49.000    21782971.645 8 113429653.30008                        52.000                                                                    21782976.603 8  92170903.35808                        50.000
C33  23124883.110 7 121522085.96907                        47.000    23124909.998 7  90747122.14707                        47.000    23124880.965 8 120417330.39108                        49.000                                                                    23124898.812 7  97849017.37807                        46.000
C37  24912539.334 6 130916270.36906                        40.000    24912545.738 7  97762174.53507                        43.000    24912537.224 7 129726119.00007                        43.000                                                                    24912546.659 7 105413130.72607                        43.000
E01  25057794.028 7 131679598.77607                        45.000    25057797.261 7 106882799.95707                        43.000    25057795.723 7  98332172.56007                        46.000    25057794.022 7 100897354.93807                        46.000    25057794.635 8  99614765.82208                        49.000
E03  27600826.632 6 145043312.44206                        38.000    27600829.409 6 117729978.97606                        38.000    27600829.981 6 108311588.30606                        41.000    27600828.447 7 111137100.17507                        42.000    27600828.849 7 109724345.81507                        44.000
E07  27294872.054 6 143435551.27506                        38.000    27294875.909 6 116424996.10106                        38.000    27294878.385 7 107111007.32907                        42.000    27294875.958 6 109905178.66706                        41.000    27294877.030 7 108508085.57507                        45.000
E08  24184475.754 6 127090286.51006                        40.000    24184480.760 6 103157718.06206                        40.000    24184477.967 7  94905087.90607                        44.000    24184475.857 7  97380871.99207                        45.000    24184476.478 8  96142981.02108                        48.000
E13  23834485.708 7 125251061.33507                        47.000    23834488.957 7 101664836.74707                        47.000    23834487.215 8  93531646.61908                        49.000    23834485.771 8  95971597.91708                        50.000    23834486.340 8  94751624.34108                        53.000
E15  27445014.964 6 144224519.33906                        37.000    27445018.594 6 117065367.61906                        36.000    27445020.526 6 107700140.18906                        41.000    27445019.264 7 110509704.73107                        42.000    27445019.403 7 109104932.53307                        44.000
E21  25387965.503 7 133414653.29307                        42.000    25387969.263 6 108291124.36106                        41.000    25387968.459 7  99627831.47607                        45.000    25387966.945 7 102226811.88607                        46.000    25387967.152 8 100927322.75608                        49.000
E26  23117340.822 8 121482448.24408                        48.000    23117343.282 7  98605893.75507                        46.000    23117343.361 8  90717422.28208                        49.000    23117341.912 8  93083958.96408                        50.000    23117342.376 8  91900691.69708                        52.000
E27  28523746.729 5 149893291.56005                        33.000    28523754.901 5 121666628.29505                        33.000    28523756.465 6 111933324.72606                        38.000    28523754.344 6 114853294.28106                        39.000    28523754.783 6 113393322.57806                        41.000
E31  27882899.005 6 146525621.02706                        37.000    27882900.778 6 118933148.70906                        37.000    27882902.298 6 109418506.70406                        40.000    27882901.148 7 112272895.57807                        42.000    27882901.311 7 110845705.21607                        44.000
E33  28009789.269 6 147192446.38406                        37.000    28009793.846 6 119474415.32806                        36.000    28009792.800 6 109916452.73606                        41.000    28009790.875 7 112783830.44107                        42.000    28009791.387 7 111350146.16307                        44.000
G01  23938425.793 6 125797288.44206                        40.000    23938425.543 4        24.000    23938430.655 4  98023881.46904                        24.000    23938430.309 6  98023887.46806                        39.000    23938427.643 7  93939544.49607                        44.000
G07  24856482.815 6 130621690.11906                        39.000    24856482.310 3        19.000    24856484.613 3 101783140.37403                        19.000    24856484.462 5 101783142.38205                        34.000
G08  20888325.745 8 109768876.68108                        50.000    20888325.145 8        52.000    20888328.055 8  85534199.23708                        52.000    20888328.856 7  85534215.23407                        47.000    20888325.286 8  81970275.09408                        51.000
G10  21136400.168 8 111072528.40208                        51.000    21136399.627 8        52.000    21136402.346 8  86550031.12708                        52.000    21136402.327 7  86550034.13507                        46.000    21136398.951 8  82943775.28308                        51.000
G11  22182260.537 7 116568564.82107                        43.000    22182259.853 4        27.000    22182259.729 4  90832646.37804                        27.000
G16  21939374.434 7 115292180.39307                        45.000    21939373.558 4        29.000    21939373.630 4  89838057.91504                        29.000
G20  22482608.579 7 118146902.47807                        42.000    22482607.301 4        25.000    22482607.943 4  92062524.16704                        25.000
G21  24941360.855 6 131067726.73606                        38.000    24941359.738 2        15.000    24941359.943 2 102130692.28002                        15.000
G22  24866381.066 6 130673736.47006                        38.000    24866380.042 2        17.000    24866382.959 2 101823713.12002                        17.000
G26  24258699.742 6 127480300.68906                        38.000    24258699.157 4        29.000    24258704.127 4  99335326.92004                        29.000    24258705.152 5  99335303.90405                        35.000    24258703.967 7  95196336.73007                        44.000
G27  20306120.889 8 106709380.14808                        50.000    20306120.272 9        54.000    20306122.531 9  83150176.55509                        54.000    20306122.700 8  83150178.55908                        48.000    20306120.711 8  79685577.35608                        53.000
G30  25465258.660 6 133820834.40006                        36.000    25465258.298 2        12.000    25465260.804 2 104275971.43402                        12.000    25465261.823 5 104275979.40805                        32.000    25465259.927 6  99931147.37606                        37.000
G32  24833475.376 6 130500809.02206                        37.000    24833475.104 5        30.000    24833481.123 5 101688964.46305                        30.000    24833481.534 6 101688968.47506                        36.000    24833478.443 6  97451947.41706                        41.000
R01  24039764.290 5 128506331.46205                        35.000    24039777.552 5  99949417.53205                        31.000
R06  23285850.802 6 124257737.05806                        38.000
R07  20864117.442 7 111687211.80907                        47.000    20864122.785 7  86867896.98007                        44.000
R08  21429712.142 7 114755158.33907                        46.000    21429718.332 7  89254046.27307                        43.000
R12  23219683.121 7 124035349.89307                        43.000    23219691.620 6  96471984.48506                        41.000
R13  21125099.193 5 112806823.74205                        35.000    21125103.533 6  87738673.30406                        36.000
R14  22179413.627 7 118228759.60007                        46.000    22179418.748 7  91955722.52607                        43.000
R22  20843989.623 7 111266615.18007                        47.000    20843994.711 7  86540728.28907                        44.000
R23  20241382.767 8 108277723.88508                        50.000    20241389.419 6  84216061.58306                        40.000
R24  22821009.421 7 122034200.88607                        42.000    22821015.770 6  94915518.54106                        39.000
S23  38217619.440 7 200834951.73007                        42.000    38217594.334 7 149974047.81207                        43.000
S25  37560262.774 7 197380513.24207                        44.000
S36  37534849.663 7 197246970.60807                        44.000    37534823.296 7 147294714.41407                        46.000
